주차장명,주소,주차장 종류명,운영구분명,전화번호,주차 면(주차 가능 차량 수),유무료구분명,평일 운영 시작시각(HHMM),평일 운영 종료시각(HHMM),주말 운영 시작시각(HHMM),주말 운영 종료시각(HHMM),공휴일 운영 시작시각(HHMM),공휴일 운영 종료시각(HHMM),"토요일 유,무료 구분명","공휴일 유,무료 구분명",월 정기권 금액,기본 주차 요금,기본 주차 시간(분 단위),추가 단위 요금,추가 단위 시간(분 단위),일 최대 요금,위도,경도
초안산근린공원주차장(구),도봉구 창동 24-0,노외 주차장,시간제 주차장,,68,유료,900,1900,900,1900,900,1900,무료,무료,0,0,0,300,10,0,37.64927895,127.0404744
마들스타디움(근린공원)(구),노원구 상계동 770-2,노외 주차장,시간제 주차장,02-2289-6735,177,유료,0,2400,0,2400,0,2400,무료,무료,100000,150,5,150,5,11000,37.64391748,127.0585674
영등포여자고등학교지하공영(구),영등포구 신길동 184-3,노외 주차장,시간제 주차장,02-831-6723,98,유료,1000,1900,1000,1900,1000,1900,무료,무료,65000,50,5,50,5,0,37.51520496,126.915116
당산근린공원지하공영(구),영등포구 당산동3가 385-0,노외 주차장,시간제 주차장,02-2633-0298,190,유료,0,2400,0,2400,0,2400,무료,무료,100000,150,5,150,5,0,37.52552609,126.8957941
대림운동장(구),영등포구 대림동 780-0,노외 주차장,시간제 주차장,02-831-3312,192,유료,600,2200,600,2200,600,2200,무료,무료,65000,50,5,50,5,0,37.49965667,126.8948384
양재역환승주차장(시),서초구 양재동 23-0,노외 주차장,시간제 주차장,,894,유료,0,2400,0,2400,0,2400,무료,무료,120000,1500,30,500,10,20000,37.48352522,127.034342
휘경마을 공영주차장(구),동대문구 휘경동 308-32,노외 주차장,시간제 + 거주자 주차장,02-2247-9664~6,78,유료,900,1900,900,1900,900,1900,무료,무료,0,1000,60,0,0,10000,37.5880691,127.0580933
중산공영주차장(구),동대문구 답십리동 23-3,노외 주차장,시간제 + 거주자 주차장,02-2247-9664~6,58,유료,900,1900,900,1900,900,1900,무료,무료,0,1000,60,0,0,10000,37.56867158,127.0589207
방학동 도깨비시장 공영주차장(구),도봉구 방학동 632-1,노외 주차장,시간제 + 거주자 주차장,02-901-5100,80,유료,900,2200,900,2200,900,2200,무료,무료,0,100,5,100,5,0,37.6645806,127.0339057
은평평화공원(구),은평구 녹번동 153-1,노외 주차장,시간제 주차장,02-350-5183,143,유료,0,2400,0,2400,0,2400,무료,무료,120000,150,5,150,5,0,37.60573659,126.9231083
강남관광정보센터-공영주차장(구),강남구 압구정동 428-0,노외 주차장,시간제 주차장,02-2176-0971,342,유료,900,2100,900,2100,900,2100,무료,무료,200000,400,5,400,5,0,37.52701729,127.0264712
신림동공영주차장(구),관악구 신림동 1456-3,노외 주차장,시간제 + 거주자 주차장,02-2081-2675,191,유료,0,2400,0,2400,0,2400,무료,무료,0,250,5,250,5,0,37.48736246,126.9234342
포이초교(구),강남구 개포동 1273-0,노외 주차장,시간제 주차장,02-2176-0925,194,유료,0,2400,0,2400,0,2400,무료,무료,120000,200,5,200,5,18000,37.47564571,127.052365
수유2동 공영주차장(구),강북구 수유동 660-30,노외 주차장,시간제 주차장,02-900-7443,62,유료,0,2400,0,2400,0,2400,무료,무료,60000,150,5,150,5,10000,37.64603214,127.0219081
송중동(임시)공영주차장(구),강북구 미아동 860-123,노외 주차장,시간제 주차장,02-988-1283,6,유료,0,2400,0,2400,0,2400,무료,무료,100000,200,5,200,5,10000,37.61105539,127.0334978
바람개비주차장(구),양천구 목동 919-8,노외 주차장,시간제 주차장,02-2644-1386,186,유료,900,1900,0,0,0,0,유료,유료,70000,150,5,150,5,9000,37.53033824,126.8742749
구로디지털단지역 환승주차장(시),구로구 구로동 810-3,노외 주차장,시간제 주차장,02-859-6318,93,유료,0,2400,0,2400,0,2400,무료,무료,100000,150,5,150,5,0,37.48543179,126.9012433
상계2동 공영주차장(구),노원구 상계동 373-13,노외 주차장,시간제 주차장,02-931-2758,108,유료,0,2400,0,2400,0,2400,무료,무료,100000,150,5,150,5,11100,37.6567376,127.067531
논현로22길(구),강남구 개포동 1266-0,노외 주차장,시간제 주차장,02-576-1492,100,유료,900,1900,0,0,0,0,유료,유료,120000,200,5,200,5,18000,37.48150119,127.0478133
문화회관 지하주차장(구),양천구 신정동 322-0,노외 주차장,시간제 주차장,02-2653-1385,93,유료,900,1900,900,1900,0,0,무료,유료,70000,150,5,150,5,0,37.51655891,126.8632978
신당동 공영주차장(구),중구 신당동 300-11,노외 주차장,시간제 + 거주자 주차장,02-2235-7003,24,유료,0,2400,0,2400,0,2400,무료,무료,240000,250,5,250,5,0,37.56204618,127.0144272
남산동 공영주차장(구),중구 남산동2가 30-4,노외 주차장,시간제 + 거주자 주차장,02-755-7004,49,유료,0,2400,0,2400,0,2400,무료,무료,240000,250,5,250,5,0,37.55923691,126.985624
역삼1동 문화센터(구),강남구 역삼동 829-20,노외 주차장,시간제 주차장,02-2176-0922,118,유료,0,2400,0,2400,0,2400,무료,무료,280000,400,5,400,5,30000,37.49534845,127.0332376
언북초교(구),강남구 청담동 27-0,노외 주차장,시간제 주차장,02-2176-0908,225,유료,0,2400,0,2400,0,2400,무료,무료,180000,300,5,300,5,25000,37.51999434,127.0456589
삼성1동 문화센터(구),강남구 삼성동 161-2,노외 주차장,시간제 주차장,,67,유료,700,2200,530,1800,0,0,무료,유료,200000,400,5,400,5,30000,37.51434435,127.0626519
논현초교(구),강남구 논현동 168-0,노외 주차장,시간제 주차장,02-2176-0943,192,유료,0,2400,0,2400,0,2400,무료,무료,180000,300,5,300,5,25000,37.50822463,127.0262625
언주초교(구),강남구 도곡동 922-0,노외 주차장,시간제 주차장,02-2176-0929,191,유료,0,2400,0,2400,0,2400,무료,무료,120000,200,5,200,5,18000,37.48664435,127.0370504
개포로24길33(구),강남구 개포동 1204-0,노외 주차장,시간제 주차장,02-3443-2784,36,유료,900,1900,0,0,0,0,유료,유료,120000,200,5,200,5,18000,37.47715365,127.0499289
연광초교지하공동주차장(구),은평구 불광동 400-6,노외 주차장,시간제 주차장,02-385-2193,152,유료,0,2400,0,2400,0,2400,무료,무료,70000,100,5,100,5,0,37.62387156,126.9242215
서신초교지하공동주차장(구),은평구 신사동 193-0,노외 주차장,시간제 주차장,02-375-3822,110,유료,0,2400,0,2400,0,2400,무료,무료,70000,100,5,100,5,0,37.59220373,126.9066978
구파발역 환승주차장(시),은평구 진관동 66-30,노외 주차장,시간제 주차장,02)353-6413,401,유료,0,2400,0,2400,0,2400,무료,무료,65000,100,5,100,5,0,37.63800702,126.9193218
살곶이(평면)(구),성동구 사근동 104-0,노외 주차장,시간제 주차장,02-2204-7960,102,유료,0,2400,0,2400,0,2400,무료,무료,50000,50,5,50,5,5000,37.55384954,127.0482917
응봉동(평면)(구),성동구 응봉동 3-11,노외 주차장,시간제 주차장,02-2292-8650,69,유료,0,2400,0,2400,0,2400,무료,무료,70000,100,5,100,5,10000,37.55039155,127.0344811
마장동축산물(평면)(구),성동구 마장동 525-0,노외 주차장,시간제 주차장,02-2204-7965,35,유료,0,2400,0,2400,0,2400,무료,무료,120000,250,5,250,5,10000,37.57156287,127.0395315
볏골공원 지하공영주차장(구),강서구 화곡동 98-99,노외 주차장,시간제 주차장,02-2065-1575,233,유료,700,2300,900,1500,0,0,무료,유료,60000,100,5,100,5,5000,37.54149243,126.844396
한누리(구),동작구 사당동 1046-1,노외 주차장,시간제 주차장,,45,유료,0,2400,0,2400,0,2400,무료,무료,100000,150,5,150,5,35000,37.47743578,126.9770784
동작주차공원(구),동작구 동작동 326-0,노외 주차장,시간제 주차장,,147,유료,0,2400,0,2400,0,2400,무료,무료,70000,100,5,100,5,0,37.50309257,126.9782686
신사동 제1공영주차장(구),관악구 신림동 511-1,노외 주차장,시간제 + 거주자 주차장,02-2081-2675,41,유료,900,1900,900,1600,0,0,무료,무료,0,50,5,50,5,0,37.48444431,126.915461
길음역환승주차장(구),성북구 하월곡동 104-112,노외 주차장,시간제 주차장,02-6923-0023,147,유료,0,2400,0,2400,0,2400,무료,무료,120000,150,5,150,5,10000,37.60423761,127.0258183
잠원동방음언덕형공영주차장(구),서초구 잠원동 10-33,노외 주차장,시간제 + 거주자 주차장,02-511-3015,94,유료,0,2400,0,2400,0,2400,무료,무료,120000,300,10,300,10,0,37.51638775,127.0163891
반포2동 공영주차장(구),서초구 반포동 5-1,노외 주차장,시간제 주차장,02-534-2772,134,유료,0,2400,0,2400,0,2400,무료,무료,120000,300,10,300,10,0,37.50421414,126.9954231
반포서래(구),서초구 반포동 95-13,노외 주차장,시간제 주차장,010-9193-3829,8,유료,1000,2300,1000,2300,0,0,무료,유료,90000,300,10,300,10,15000,37.49814931,126.9978319
청계산 청룡주차장(구),서초구 신원동 224-3,노외 주차장,시간제 주차장,010-6320-5855,41,유료,0,0,500,1900,500,1900,무료,무료,0,200,10,200,10,3000,37.44657405,127.0598862
동부청과(시),동대문구 용두동 8-1,노상 주차장,시간제 주차장,02-2272-8821,25,유료,800,2200,800,2200,800,2200,무료,무료,0,250,5,250,5,0,37.57758831,127.0442753
가마산고가밑(시),구로구 구로동 414-13,노상 주차장,시간제 주차장,031-405-8808,18,유료,900,1900,900,1500,0,0,무료,유료,0,150,5,150,5,0,37.49288559,126.8825117
남대문화물(시),중구 남대문로4가 24-1 0,노상 주차장,시간제 주차장,010-8005-0672,9,유료,900,2000,900,1600,0,0,무료,유료,0,250,5,500,5,0,37.56092361,126.9779427
남대문피혁상가 남측 노상 공영주차장(구),중구 봉래동1가 83-0 0,노상 주차장,시간제 주차장,02)2280-8365,25,유료,800,2200,900,2200,0,0,무료,유료,250000,500,5,500,5,0,37.55917756,126.9736243
신설동(시),동대문구 신설동 114-29,노외 주차장,시간제 주차장,02)2232-6096,78,유료,900,1900,900,1900,900,1900,무료,무료,50000,150,5,150,5,0,37.57252061,127.0242568
천호2동노외주차장(구),강동구 천호동 457-7,노외 주차장,시간제 주차장,02-478-6147,13,유료,900,2000,900,2000,900,2000,무료,무료,0,250,5,250,5,0,37.54032781,127.1230483
구의3동 공영주차장(구),광진구 구의동 219-15,노외 주차장,시간제 + 거주자 주차장,,159,유료,0,2400,0,2400,0,2400,무료,무료,80000,150,5,150,5,0,37.5391245,127.0913897
광진광장공영(구),광진구 군자동 374-7,노외 주차장,시간제 주차장,02-465-2026,36,유료,0,2400,0,2400,0,2400,무료,무료,120000,250,5,250,5,0,37.54770648,127.0732696
암사1동(구),강동구 암사동 59-2,노외 주차장,시간제 주차장,02-428-2431,112,유료,0,2400,0,2400,0,2400,무료,무료,80000,150,5,150,5,0,37.55284955,127.1380234
양화진 공영주차장(구),마포구 합정동 139-21,노외 주차장,시간제 주차장,02-300-5052,133,유료,0,2400,0,2400,0,2400,무료,무료,50000,100,5,100,5,0,37.545733,126.9112039
망원1-2 공영주차장(구),마포구 망원동 403-2,노외 주차장,시간제 주차장,02-300-5052,150,유료,0,2400,0,2400,0,2400,무료,무료,50000,100,5,100,5,0,37.55558459,126.9058731
휘경유수지 공영주차장(구),동대문구 휘경동 348-0,노외 주차장,시간제 주차장,,55,유료,0,2400,0,2400,0,2400,무료,무료,170000,500,10,500,10,0,37.58908686,127.0697738
장안1동민자유치(장안주차장)(구),동대문구 장안동 392-11,노외 주차장,시간제 주차장,,77,유료,900,1900,900,1900,900,1900,무료,무료,100000,1500,30,500,10,10000,37.56942934,127.0670228
덕원주차장(구),동대문구 장안동 458-8,노외 주차장,시간제 주차장,02-6240-0150,77,유료,0,2400,0,2400,0,2400,무료,무료,110000,1000,30,300,10,15000,37.5623712,127.0687626
청계주차장(구),동대문구 용두동 129-4,노외 주차장,시간제 주차장,02-923-4147,122,유료,0,2400,0,2400,0,0,무료,유료,250000,1500,30,500,10,15000,37.57223438,127.0342946
영등포동제3공영(구),영등포구 영등포동4가 442-0,노외 주차장,시간제 주차장,02-2068-3596,172,유료,0,2400,0,2400,0,2400,무료,무료,120000,250,5,250,5,0,37.51707492,126.9033429
가족공원주차장(시),용산구 용산동6가 93-6,노외 주차장,시간제 주차장,02-792-5661,50,유료,0,2400,0,2400,0,2400,무료,무료,120000,300,10,300,10,0,37.52073083,126.9836596
청파동1마을공원공영주차장(구),용산구 청파동3가 118-102,노외 주차장,시간제 주차장,010-8956-2371,105,유료,0,2400,0,2400,0,2400,무료,무료,98000,150,5,150,5,0,37.54294115,126.9684714
청파동청사(구),용산구 청파동2가 91-1,노외 주차장,시간제 주차장,070-4257-3611,32,유료,0,2400,0,2400,0,2400,무료,무료,98000,150,5,150,5,0,37.54549939,126.9699178
용산전자상가4(구),용산구 원효로3가 51-5,노외 주차장,시간제 주차장,02-707-3163,114,유료,800,2200,800,2200,800,2200,무료,무료,130000,250,5,250,5,0,37.53388844,126.9600572
후암동주차장(구),용산구 후암동 65-4,노외 주차장,시간제 주차장,010-3330-8150,39,유료,0,2400,0,2400,0,2400,무료,무료,140000,150,5,150,5,0,37.55048874,126.9764859
동호대교(남)(시),강남구 압구정동 435-0,노상 주차장,시간제 주차장,02-445-0501,30,유료,900,1900,900,1900,0,0,무료,유료,0,100,5,100,5,0,37.53099965,127.0246643
영등포구청역(시),영등포구 당산동3가 370-0,노외 주차장,시간제 주차장,02)2290-6089,139,유료,500,100,500,100,500,100,무료,무료,80000,150,5,150,5,0,37.52490727,126.8951624
잠실역(시),송파구 신천동 29-0,노외 주차장,시간제 주차장,02-2290-6402,359,유료,500,100,500,100,500,100,무료,무료,180000,400,5,400,5,0,37.51310061,127.1035218
장안2동 노외주차장(시),동대문구 장안동 286-9,노외 주차장,시간제 주차장,02)2290-6417,80,유료,0,2400,0,2400,0,2400,무료,무료,50000,100,5,100,5,0,37.5782752,127.070619
개화산역(시),강서구 방화동 526-16,노외 주차장,시간제 주차장,,310,유료,0,2400,0,2400,0,2400,무료,무료,50000,100,5,100,5,0,37.57251514,126.8043919
화랑대역 환승주차장(시),중랑구 묵동 28-0,노외 주차장,시간제 주차장,02)2290-6410,332,유료,0,2400,0,2400,0,2400,무료,무료,39000,50,5,50,5,0,37.61997867,127.0866958
해방촌노외(시),용산구 용산동2가 1-1497,노외 주차장,시간제 주차장,02-2642-6209,24,유료,900,2200,900,2200,900,2200,무료,무료,100000,150,5,150,5,0,37.54438297,126.9843042
광운대입구(구),성북구 장위동 135-1,노외 주차장,시간제 주차장,,18,유료,900,1900,900,1500,0,0,무료,유료,50000,100,5,100,5,0,37.61714694,127.0562518
당산노외(시),영등포구 당산동3가 2-1,노외 주차장,시간제 주차장,032-872-7078,237,유료,800,2100,800,2100,800,2100,무료,무료,100000,150,5,150,5,0,37.52625064,126.8994538
명일동(시),강동구 명일동 47-9,노외 주차장,시간제 주차장,02-445-0501,11,유료,900,2000,900,1500,0,0,무료,유료,180000,250,5,250,5,0,37.55361065,127.1559121
대림역(시),영등포구 대림동 808-24,노상 주차장,시간제 주차장,032-872-7078,24,유료,900,1900,900,1500,0,0,무료,유료,0,150,5,150,5,0,37.49251288,126.895605
도곡로21길7(구),강남구 역삼동 795-25,노외 주차장,시간제 주차장,02-2176-0920,78,유료,0,2400,0,2400,0,2400,무료,무료,280000,400,5,400,5,30000,37.49250002,127.0388068
탄천제2호(구),강남구 일원동 4-47,노외 주차장,시간제 주차장,02-2176-0931,323,유료,0,2400,0,2400,0,2400,무료,무료,70000,100,5,100,5,12000,37.4941244,127.0874386
영희초교(구),강남구 일원동 617-0,노외 주차장,시간제 주차장,02-2176-0934,187,유료,0,2400,0,2400,0,2400,무료,무료,70000,100,5,100,5,12000,37.49192117,127.0812916
배봉공영주차장(구),동대문구 휘경동 286-66,노외 주차장,시간제 + 거주자 주차장,02-2247-9664~6,199,유료,900,1900,900,1900,900,1900,무료,무료,0,1000,60,0,0,10000,37.58693739,127.0620858
하늘공원주차장(구),구로구 가리봉동 1-11,노외 주차장,시간제 주차장,,198,유료,0,2400,0,2400,0,2400,무료,무료,80000,150,5,150,5,0,37.48713079,126.8808015
개봉1동마을공동주차장(구),구로구 개봉동 416-2,노외 주차장,시간제 주차장,,56,유료,900,1800,0,0,0,0,유료,유료,50000,50,5,50,5,0,37.50455714,126.8460846
개봉1동 노외주차장(시),구로구 개봉동 134-8,노외 주차장,시간제 주차장,,134,유료,0,2400,0,2400,0,2400,무료,무료,75000,100,5,100,5,0,37.50001376,126.8510351
가로공원주차장(구),양천구 신월동 263-0,노외 주차장,시간제 주차장,02-2065-8332,376,유료,0,2400,0,2400,0,2400,무료,무료,70000,150,5,150,5,0,37.53710741,126.8290595
양재시민의숲(매헌)역 공영주차장(구),서초구 양재동 237-2,노외 주차장,시간제 주차장,070-4615-4962,50,유료,800,2100,800,2100,800,2100,무료,무료,140000,500,10,500,10,0,37.47037133,127.0385513
송정동(건물)(구),성동구 송정동 68-57,노외 주차장,시간제 주차장,02-2204-7965,122,유료,0,2400,0,2400,0,2400,무료,무료,70000,100,5,100,5,10000,37.549976,127.0680728
동작대교(시),용산구 용산동6가 69-11,노외 주차장,시간제 주차장,02-2642-6209,87,유료,800,2200,800,2200,800,2200,무료,무료,50000,100,5,100,5,0,37.51801557,126.9839829
당고개아래(시),노원구 상계동 65-40,노외 주차장,시간제 주차장,02-2648-8292,130,유료,800,2200,800,2200,800,2200,무료,무료,100000,150,5,150,5,0,37.6687411,127.0778095
망원동 노외 공영주차장(구),마포구 망원동 478-10,노외 주차장,시간제 주차장,02-300-5052,13,유료,900,1900,900,1900,0,0,무료,유료,50000,100,5,100,5,0,37.55955925,126.9066011
개화역 환승주차장(시),강서구 개화동 663-0,노외 주차장,시간제 주차장,02-2663-6449,387,유료,0,2400,0,2400,0,2400,무료,무료,65000,100,5,100,5,0,37.57645065,126.7985426
신대방역노외(시),관악구 신림동 498-0,노외 주차장,시간제 주차장,02-858-6417,60,유료,0,2400,0,2400,0,2400,무료,무료,120000,150,5,150,5,0,37.4869656,126.9130705
구로디지털단지역(상)(시),관악구 신림동 1677-5,노외 주차장,시간제 주차장,031-405-8808,33,유료,800,2100,800,2100,800,2100,무료,무료,100000,150,5,150,5,0,37.48481135,126.9032339
학여울역 환승주차장(시),강남구 대치동 514-1,노외 주차장,시간제 주차장,02-569-7741,182,유료,500,100,500,100,500,100,무료,무료,100000,150,5,150,5,0,37.49705092,127.0723954
일원동(시),강남구 일원동 711-1,노외 주차장,시간제 주차장,,21,유료,900,1900,900,1500,0,0,무료,유료,30000,50,5,50,5,0,37.49134485,127.0884278
일원터널(시),강남구 일원동 722-2,노외 주차장,시간제 주차장,02-2290-6478,11,유료,0,2400,0,2400,0,2400,무료,무료,50000,100,5,100,5,0,37.48280832,127.0787552
창동역(서)(시),도봉구 창동 330-0,노외 주차장,시간제 주차장,02-2648-8292,124,유료,0,2400,0,2400,0,2400,무료,무료,100000,150,5,150,5,0,37.65237042,127.0456768
송천동공영주차장(구),강북구 미아동 439-138,노외 주차장,시간제 주차장,02-944-3039,59,유료,0,2400,0,2400,0,2400,무료,무료,60000,150,5,150,5,10000,37.61458475,127.0251644
수유일공원공영주차장(구),강북구 수유동 605-407,노외 주차장,시간제 주차장,02-944-3042,91,유료,0,2400,0,2400,0,2400,무료,무료,100000,200,5,200,5,10000,37.63061186,127.0174307
미아동공영주차장(구),강북구 미아동 222-100,노외 주차장,시간제 주차장,02-944-3048,155,유료,0,2400,0,2400,0,2400,무료,무료,80000,150,5,150,5,10000,37.6285679,127.0223596
수유동쌈지마당공영주차장(구),강북구 수유동 612-6,노외 주차장,시간제 주차장,010-2977-0759,19,유료,0,2400,0,2400,0,2400,무료,무료,150000,250,5,250,5,15000,37.63207449,127.0236192
당곡중학교공영 (지하주차장)(구),관악구 봉천동 682-0,노외 주차장,시간제 + 거주자 주차장,02-2081-2675,159,유료,0,2400,0,2400,0,2400,무료,무료,0,50,5,50,5,0,37.49190539,126.9330035
석계역(시),노원구 월계동 50-9,노외 주차장,시간제 주차장,02-2648-8292,73,유료,0,2400,0,2400,0,2400,무료,무료,100000,150,5,150,5,0,37.61548758,127.0623719
새서울주차장(시흥)(시),금천구 시흥동 886-14,노외 주차장,시간제 주차장,010-8701-4904,122,유료,700,2000,700,2000,700,2000,무료,무료,82500,1000,30,200,10,10000,37.45328014,126.902969
한마음주차장(구),양천구 목동 914-5,노외 주차장,시간제 주차장,070-7119-2575,426,유료,0,2400,0,2400,0,2400,무료,무료,70000,150,5,150,5,0,37.53067739,126.8778804
적선동 주차장(시),종로구 적선동 140-0,노외 주차장,시간제 + 버스전용 주차장,02-2264-4895,19,유료,900,1900,900,1900,900,1900,무료,무료,,500,5,500,5,,37.57449014,126.9741859
해군본부앞(시),영등포구 신길동 812-0,노상 주차장,시간제 주차장,031-903-3345,22,유료,900,1900,900,1500,0,0,무료,유료,0,250,5,250,5,0,37.50428868,126.9209787
연신중학교지하공동주차장(구),은평구 불광동 400-4,노외 주차장,시간제 주차장,,137,유료,0,2400,0,2400,0,2400,무료,무료,70000,100,5,100,5,0,37.6232864,126.9250857
구청앞(구),강북구 수유동 191-1 ,노상 주차장,시간제 + 거주자 주차장,,20,유료,900,1900,900,1500,0,0,무료,무료,100000,250,5,250,5,15000,37.63912471,127.0256368
청계산근린광장(구),서초구 원지동 355-1,노외 주차장,시간제 주차장,02-577-1055,89,유료,900,1800,900,1800,900,1800,무료,무료,0,200,10,200,10,6000,37.44649791,127.0561579
강일동공영주차장(구),강동구 강일동 292-2,노외 주차장,시간제 주차장,02-478-6147,81,유료,0,2400,0,2400,0,2400,무료,무료,80000,150,5,150,5,0,37.56645809,127.1722653
답십리 부품상가 노상(구),동대문구 답십리동 959-10 ,노상 주차장,시간제 주차장,,72,유료,900,1900,900,1500,0,0,무료,유료,120000,500,10,500,10,36000,37.56600543,127.0607694
번동 햇살 주차장(구),강북구 번동 148-380,노외 주차장,시간제 주차장,02-944-3044,187,유료,0,2400,0,2400,0,2400,무료,무료,60000,150,5,150,5,10000,37.62509512,127.0334319
봉수대공영주차장(구),중랑구 신내동 12-2,노외 주차장,시간제 주차장,02-438-8271,31,유료,800,1700,0,0,0,0,유료,유료,0,150,5,150,5,3000,37.61638404,127.1123001
시설관리공단 청사 주차장(구),양천구 목동 919-5,노외 주차장,시간제 주차장,02-2644-1386,22,유료,900,1730,0,0,0,0,유료,유료,70000,150,5,150,5,9000,37.53034734,126.8713663
양천사회단체봉사센터(구),양천구 목동 905-29,노외 주차장,시간제 주차장,02-2646-9055,20,유료,900,1900,0,0,0,0,유료,유료,70000,300,10,300,10,0,37.53187194,126.875464
목동타운홀(구),양천구 목동 905-21,노외 주차장,시간제 주차장,02-2651-3730,25,유료,900,1900,0,0,0,0,유료,유료,70000,300,10,300,10,0,37.53292894,126.8768775
마천동3공영주차장(구),송파구 마천동 128-4,노외 주차장,시간제 주차장,02-430-6790,47,유료,0,2400,0,2400,0,2400,무료,무료,75000,100,5,100,5,0,37.49615427,127.1498486
문정 공영주차장(구),송파구 문정동 2-5,노외 주차장,시간제 주차장,02-407-1500,101,유료,600,2100,600,2100,600,2100,무료,무료,50000,100,5,100,5,0,37.49122464,127.1346929
대림노외(시),구로구 구로동 120-5,노외 주차장,시간제 주차장,032-872-7078,93,유료,900,1900,900,1900,900,1900,무료,무료,100000,150,5,150,5,,37.4928472,126.8943315
도봉산역 환승주차장(시),도봉구 도봉동 288-19,노외 주차장,시간제 주차장,02)2290-6047 ,364,유료,0,2400,0,2400,0,2400,무료,무료,65000,100,5,100,5,0,37.68972069,127.0448386
수서역남 환승주차장(시),강남구 수서동 727-0,노외 주차장,시간제 주차장,02-2226-6404,81,유료,0,2400,0,2400,0,2400,무료,무료,120000,250,5,250,5,0,37.4868589,127.1011147
신촌역동측광장공영주차장(구),서대문구 대현동 121-9,노외 주차장,시간제 + 버스전용 주차장,02-360-8540~1,26,유료,0,2400,0,2400,0,2400,무료,무료,350000,350,5,350,5,0,37.55933566,126.9427449
남부골목 전통시장 고객주차장(구),강서구 화곡동 797-7,노외 주차장,시간제 주차장,02-2646-5656,17,유료,1000,2000,1000,2000,0,0,무료,유료,60000,250,5,250,5,0,37.53231129,126.8608566
까치산 전통시장 고객주차장(구),강서구 화곡동 342-16,노외 주차장,시간제 주차장,02-2606-4500,19,유료,1000,2000,1000,2000,0,0,무료,유료,60000,250,5,250,5,0,37.53154144,126.847861
송화골목 전통시장 고객주차장(구),강서구 내발산동 720-4,노외 주차장,시간제 주차장,02-2696-5225,24,유료,1000,2100,1000,2100,0,0,무료,유료,60000,250,5,250,5,0,37.54910323,126.8346531
가로공원길지하 주차장(구),강서구 화곡동 662-15,노외 주차장,시간제 주차장,02-2699-0802,501,유료,700,2300,900,1500,0,0,무료,유료,60000,100,5,100,5,5000,37.53758251,126.8393482
동대문주차장(시),중구 신당동 251-7,노외 주차장,시간제 주차장,02)2254-4901 ,1098,유료,0,2400,0,2400,0,2400,무료,무료,180000,400,5,400,5,0,37.56729802,127.0114499
큰마을길(구),강북구 미아동 309-14 ,노상 주차장,시간제 + 거주자 주차장,02-944-3025,43,유료,900,1900,900,1500,0,0,무료,무료,100000,200,5,200,5,10000,37.62349437,127.024808
교육청길(구),강북구 미아동 137-19 ,노상 주차장,시간제 + 거주자 주차장,02-944-3025,93,유료,900,1900,900,1500,0,0,무료,무료,100000,200,5,200,5,10000,37.62002022,127.0294668
신문로 노외주차장(시),종로구 신문로1가 58-36,노외 주차장,시간제 주차장,02-720-0964,17,유료,900,1900,900,1900,900,1900,무료,무료,0,500,5,500,5,0,37.57107424,126.9731594
서린노외(글로벌센터)주차장(시),종로구 서린동 63-0,노외 주차장,시간제 주차장,02-720-9862,45,유료,900,1800,0,0,0,0,유료,유료,200000,400,5,400,5,0,37.56983402,126.9815059
독립문고가밑(시),서대문구 영천동 59-0,노상 주차장,시간제 주차장,02-2663-6209,11,유료,900,1900,900,1500,0,0,무료,유료,0,250,5,250,5,0,37.57153876,126.9596823
용답제2(평면)(구),성동구 용답동 182-10,노외 주차장,시간제 주차장,02-3394-7078,141,유료,0,2400,0,2400,0,2400,무료,무료,100000,150,5,150,5,15000,37.56328524,127.056283
신교공영(구),종로구 신교동 66-0,노외 주차장,시간제 + 거주자 주차장,02-2236-0052,158,유료,0,2400,0,2400,0,2400,무료,무료,0,150,5,150,5,0,37.58411794,126.9698478
오류1동 텃골주차장(구),구로구 오류동 6-11,노외 주차장,시간제 주차장,,84,유료,0,2400,0,2400,0,2400,무료,무료,65000,100,5,100,5,0,37.4954652,126.8392484
천왕역 광역환승센터(시),구로구 오류동 174-10,노외 주차장,시간제 주차장,02)2290-6343,330,유료,0,2400,0,2400,0,2400,무료,무료,65000,100,5,100,5,0,37.48728845,126.8391832
파리공원(시),양천구 목동 906-1,노상 주차장,시간제 주차장,,42,유료,900,1900,900,1500,0,0,무료,유료,0,150,5,150,5,0,37.53392954,126.8763589
중곡시장주차장(구),광진구 중곡동 221-6,노외 주차장,시간제 + 거주자 주차장,,19,유료,900,1900,900,1900,900,1900,무료,무료,0,250,5,0,0,0,37.56387377,127.0819848
매바위공영주차장(구),은평구 응암동 747-8,노외 주차장,시간제 주차장,02-376-6538,80,유료,0,2400,0,2400,0,2400,무료,무료,70000,100,5,100,5,0,37.58652245,126.9210871
아차산 공영주차장(시),광진구 광장동 369-0,노외 주차장,시간제 주차장,02-455-5288,39,유료,800,2200,800,2200,800,2200,무료,무료,,150,5,150,5,,37.55163204,127.1008538
자양전통시장 공영주차장(구),광진구 자양동 631-18,노외 주차장,시간제 + 거주자 주차장,02-458-1624,24,유료,900,1900,900,1900,900,1900,무료,무료,,250,5,250,5,,37.53380376,127.0816039
성북구 길음동 1070-23(구),성북구 길음동 1070-23,노외 주차장,시간제 주차장,,12,유료,0,2400,0,0,0,0,유료,유료,0,2000,60,0,0,0,37.60512964,127.025378
견인보관소(구),동대문구 휘경동 361-0,노외 주차장,시간제 주차장,02-2247-9666,40,유료,0,2400,0,2400,0,2400,무료,무료,170000,500,10,500,10,0,37.58901132,127.0691229
구룡 공영주차장(구),금천구 시흥동 964-0,노외 주차장,시간제 + 거주자 주차장,02-809-0061~7,19,유료,830,1900,830,1900,830,1900,무료,무료,0,65,5,65,5,0,37.47789414,126.902755
다목적 공영주차장(구),금천구 독산동 971-0,노외 주차장,시간제 + 거주자 주차장,02-865-7557,46,유료,830,1900,830,1900,830,1900,무료,무료,0,65,5,65,5,0,37.47633196,126.9018971
영등포본동제2공영(구신길2동)(구),영등포구 신길동 186-355,노외 주차장,시간제 주차장,02-831-4938,61,유료,1000,1900,1000,1900,1000,1900,무료,무료,65000,50,5,50,5,0,37.51332538,126.9140778
면목초교주자창(구),중랑구 면목동 192-1,노외 주차장,시간제 주차장,,82,유료,0,2400,0,2400,0,2400,무료,무료,50000,100,5,100,5,0,37.58919215,127.0757948
방배열린문화센터(구),서초구 방배동 852-14,노외 주차장,시간제 주차장,080-330-3600,109,유료,0,2400,0,2400,0,2400,무료,무료,120000,300,10,300,10,0,37.48895873,126.9923298
풍납유수지공영주차장(구),송파구 풍납동 387-0,노외 주차장,시간제 주차장,02-3010-7455,234,유료,0,2400,0,2400,0,2400,무료,무료,0,250,5,250,5,0,37.52529597,127.1060433
가오천 노상공영(구),강북구 수유동 181-40 ,노상 주차장,시간제 + 거주자 주차장,,66,유료,900,1900,900,1500,0,0,무료,무료,100000,200,5,200,5,10000,37.64378941,127.0249941
벽산 노상공영(구),강북구 수유동 36-1 ,노상 주차장,시간제 + 거주자 주차장,,26,유료,900,1900,900,1500,0,0,무료,무료,100000,200,5,200,5,10000,37.64093413,127.0187404
나눔터길 노상공영(구),강북구 수유동 605-185 ,노상 주차장,시간제 + 거주자 주차장,,51,유료,900,1900,900,1500,0,0,무료,무료,100000,200,5,200,5,10000,37.63567441,127.0195984
서강대역 환승 공영주차장(구),마포구 신수동 93-35,노외 주차장,시간제 주차장,02-300-5052,98,유료,1000,2000,1000,2000,1000,2000,무료,무료,50000,150,5,150,5,0,37.55102716,126.9364628
마장 축산물시장 서문(구),성동구 마장동 522-1,노외 주차장,시간제 주차장,02-2282-7755,130,유료,0,2400,0,2400,0,2400,무료,무료,120000,250,5,250,5,18000,37.5704876,127.0383274
다산아트공영주차장(구),중구 신당동 432-612,노외 주차장,시간제 + 거주자 주차장,02-2280-8366,76,유료,800,2300,800,2300,0,0,무료,무료,140000,150,5,150,5,0,37.55167324,127.0047041
영등포구청별관청사(구),영등포구 당산동3가 560-0,노외 주차장,시간제 주차장,02-3667-0333,61,유료,800,1900,900,1800,0,0,무료,유료,84000,150,5,150,5,0,37.528464,126.89437
벚꽃길주차장(구),양천구 신정동 884-8,노외 주차장,시간제 주차장,02-2644-1386,33,유료,0,2400,0,2400,0,2400,무료,무료,50000,50,5,50,5,0,37.52756848,126.8599774
동국제강(시),중구 삼각동 111-1,노외 주차장,시간제 주차장,02-2261-0815,14,유료,900,1900,900,1900,0,0,무료,유료,250000,500,5,500,5,0,37.56733736,126.9834345
봉산도시자연공원 지하공용주차장(구),은평구 신사동 55-5,노외 주차장,시간제 주차장,,106,유료,0,2400,0,2400,0,2400,무료,무료,70000,100,5,100,5,0,37.59751011,126.9040259
고척근린공원지하주차장(시),구로구 고척동 9-14,노외 주차장,시간제 주차장,02-850-0920,199,유료,0,2400,0,2400,0,2400,무료,무료,112000,150,5,150,5,0,37.50559235,126.8519725
황학어린이공원지하주차장(구),중구 황학동 755-0,노외 주차장,시간제 + 거주자 주차장,02-2256-7004,113,유료,0,2400,0,2400,0,2400,무료,무료,180000,200,5,200,5,0,37.56754712,127.0181331
올리브타워 옆(구),중구 서소문동 135-0 ,노상 주차장,시간제 주차장,02)2280-8365,16,유료,800,2200,900,2200,0,0,무료,유료,200000,400,5,400,5,0,37.56165422,126.9730778
가락몰 주차장(시),송파구 가락동 600-0,노외 주차장,시간제 주차장,02-3435-0695,2066,유료,0,2400,0,2400,0,2400,무료,무료,0,1000,120,500,10,0,37.493474,127.116643
구로4동 주택가 공동 주차장(구),구로구 구로동 741-44,노외 주차장,시간제 주차장,02-839-4875,198,유료,0,2400,0,2400,0,2400,무료,무료,75000,100,5,100,5,0,37.48968656,126.886952
한남동공영주차장(구),용산구 한남동 685-46,노외 주차장,시간제 주차장,02-749-3633,250,유료,0,2400,0,2400,0,2400,무료,무료,180000,250,5,250,5,0,37.53496611,127.0001918
독산4동 공영주차장(구),금천구 독산동 187-40,노외 주차장,시간제 + 거주자 주차장,,50,유료,830,1900,830,1900,830,1900,무료,무료,0,65,5,65,5,0,37.46943849,126.9045065
영남(시),영등포구 영등포동4가 123-0,노외 주차장,시간제 주차장,02-2648-8292,805,유료,0,2400,0,2400,0,2400,무료,무료,125000,500,5,200,5,0,37.51947074,126.902609
뚝섬윈드서핑장옆(한강공원)(시),광진구 자양동 558-3,노외 주차장,시간제 주차장,02-416-0313,99,유료,900,200,900,200,0,0,무료,유료,50000,1000,30,200,10,10000,37.52772418,127.0791041
이촌한강공원주차장(시),용산구 이촌동 376-0,노외 주차장,시간제 주차장,02-533-2883,150,유료,900,2300,900,2300,0,0,무료,유료,50000,1000,30,200,10,10000,37.52096923,126.9597975
뚝섬청담대교밑(한강공원)(시),광진구 자양동 97-5,노외 주차장,시간제 주차장,02-3780-0521,136,유료,900,200,900,200,0,0,무료,유료,50000,1000,30,200,10,10000,37.5310785,127.0646183
뚝섬안내센터앞(한강공원)(시),광진구 자양동 435-0,노외 주차장,시간제 주차장,02-416-0313,356,유료,900,200,900,200,0,0,무료,유료,50000,1000,30,100,5,10000,37.5286166,127.0722268
빨래골 노상공영(구),강북구 수유동 49-27 ,노상 주차장,시간제 + 거주자 주차장,02-944-3025,35,유료,900,1900,900,1500,0,0,무료,무료,100000,200,5,200,5,10000,37.6326313,127.018844
수유마을시장 공영주차장(구),강북구 수유동 55-53,노외 주차장,시간제 주차장,02-944-3053,116,유료,0,2400,0,2400,0,2400,무료,무료,80000,100,5,100,5,10000,37.63066419,127.0218459
구청앞(구),강북구 수유동 142-0 ,노상 주차장,시간제 + 거주자 주차장,,1,유료,900,1900,900,1500,0,0,무료,무료,100000,250,5,250,5,15000,37.63966326,127.0262156
시흥 4동 공용주차장(구),금천구 시흥동 704-56,노외 주차장,시간제 + 거주자 주차장,,124,유료,830,1900,830,1900,830,1900,무료,무료,0,65,5,65,5,0,37.4594198,126.9087125
시흥 4동 (삼성)공영주차장(구),금천구 시흥동 171-1,노외 주차장,시간제 + 거주자 주차장,,51,유료,830,1900,830,1900,830,1900,무료,무료,0,65,5,65,5,0,37.45459691,126.9090117
금천구 시흥동 997-1(구),금천구 시흥동 997-1,노외 주차장,시간제 주차장,,120,유료,700,1900,0,0,0,0,유료,유료,0,100,5,0,0,6000,37.45368598,126.8972777
도곡초교(구),강남구 대치동 924-10,노외 주차장,시간제 주차장,02-501-5921,200,유료,0,2400,0,2400,0,2400,무료,무료,180000,300,5,300,5,25000,37.49906096,127.0546851
서울마당놀이(구),송파구 잠실동 47-1,노외 주차장,시간제 주차장,02-2157-1091,17,유료,900,1800,900,1800,900,1800,무료,무료,250000,500,5,500,5,0,37.508919,127.1000259
신구초교(구),강남구 신사동 550-11,노외 주차장,시간제 주차장,02-540-6149,185,유료,0,2400,0,2400,0,2400,무료,무료,180000,300,5,300,5,25000,37.52309456,127.0242926
역삼문화공원(구),강남구 역삼동 635-0,노외 주차장,시간제 주차장,,59,유료,900,1900,0,0,0,0,유료,유료,180000,300,5,300,5,25000,37.50229995,127.0300608
대왕초교(구),강남구 세곡동 517-0,노외 주차장,시간제 주차장,,100,유료,0,2400,0,0,0,0,유료,유료,70000,100,5,100,5,12000,37.46445115,127.1055827
천마(구),송파구 마천동 1-5,노외 주차장,시간제 주차장,,140,유료,0,2400,0,2400,0,2400,무료,무료,60000,50,5,50,5,0,37.500128,127.15601
보라매공원동문주차장(구),동작구 신대방동 395-0,노외 주차장,시간제 주차장,,52,유료,900,2200,900,2200,900,2200,무료,무료,0,100,5,100,5,0,37.49319703,126.9205143
빙수골장미(구),동작구 상도동 301-132,노외 주차장,시간제 주차장,,64,유료,0,2400,0,2400,0,2400,무료,무료,100000,150,5,150,5,35000,37.49317759,126.9340176
32공영주차장(구),강남구 신사동 564-0,노외 주차장,시간제 주차장,02-549-0463,26,유료,900,1900,0,0,0,0,유료,유료,280000,400,5,400,5,30000,37.52166886,127.0267945
북아현 가구단지(구),서대문구 북아현동 915-0,노외 주차장,시간제 주차장,,15,유료,1000,2100,1000,2100,0,0,무료,유료,240000,250,5,250,5,0,37.55829286,126.9603554
방이고분(구),송파구 방이동 125-0,노외 주차장,시간제 + 거주자 주차장,,61,유료,900,1800,900,1800,900,1800,무료,무료,0,100,5,100,5,0,37.50794057,127.118192
송파근린공원(구),송파구 송파동 113-2,노외 주차장,시간제 주차장,02-418-3854,324,유료,0,2400,0,2400,0,2400,무료,무료,140000,150,5,150,5,0,37.50590513,127.1097962
중구구민회관 부설(구),중구 을지로6가 18-14,노외 주차장,시간제 주차장,02-2265-7765,71,유료,0,2400,0,2400,0,2400,무료,무료,240000,250,5,250,5,0,37.56862553,127.0060115
중림종합복지센터 부설주차장(구_중림(제5))(구),중구 중림동 155-1,노외 주차장,시간제 주차장,02-2280-8446,65,유료,600,2200,900,1800,0,0,무료,유료,0,250,5,250,5,0,37.55947076,126.9661609
신길6동공영(구),영등포구 신길동 3203-0,노외 주차장,시간제 주차장,02-831-9463,132,유료,1000,1900,1000,1900,1000,1900,무료,무료,65000,50,5,50,5,0,37.50246528,126.9111455
경부제3녹지공영주차장(구),영등포구 신길동 69-39,노외 주차장,시간제 주차장,02-2650-1435,143,유료,0,2400,0,2400,0,2400,무료,무료,70000,100,5,100,5,0,37.51357817,126.92347
여의도2(마포대교 남단)주차장(시),영등포구 여의도동 84-4,노외 주차장,시간제 주차장,,171,유료,900,2300,900,2300,900,2300,무료,무료,100000,2000,30,150,5,15000,37.52825895,126.9326509
여의도3(서강대교남단)주차장(시),영등포구 여의도동 83-6,노외 주차장,시간제 주차장,02-782-8634,800,유료,900,2300,900,2300,900,2300,무료,무료,100000,2000,30,150,5,15000,37.53240356,126.924436
여의도4(여의2교밑)주차장(시),영등포구 여의도동 19-0,노외 주차장,시간제 주차장,,141,유료,900,2300,900,2300,900,2300,무료,무료,100000,2000,30,150,5,15000,37.52521228,126.9128624
여의도5(성모병원앞)주차장(시),영등포구 여의도동 63-0,노외 주차장,시간제 주차장,,217,유료,900,2300,900,2300,900,2300,무료,무료,100000,2000,30,150,5,15000,37.51696501,126.9357639
경동고(구),성북구 삼선동3가 43-1,노외 주차장,시간제 주차장,,124,유료,0,2400,0,2400,0,2400,무료,무료,90000,150,5,150,5,10000,37.58574745,127.014984
정릉시장(구),성북구 정릉동 405-4,노외 주차장,시간제 주차장,,20,유료,0,2400,0,2400,0,2400,무료,무료,120000,150,5,150,5,10000,37.60821867,127.0094212
길음시장(구),성북구 길음동 1286-8,노외 주차장,시간제 주차장,,56,유료,0,2400,0,2400,0,2400,무료,무료,90000,150,5,150,5,10000,37.60369981,127.0221122
경복궁역 이륜차주차장(구),종로구 내자동 67-2 ,노상 주차장,이륜차 전용 주차장,,5,무료,0,0,0,0,0,0,유료,유료,0,0,0,0,0,0,37.5762416,126.9723613
종로3가역(구),종로구 훈정동 38-2 ,노상 주차장,시간제 주차장,02-2236-0052,5,유료,1000,2200,900,1700,0,0,무료,유료,250000,1000,10,1000,10,0,37.57255414,126.9934277
열린마당(구),종로구 세종로 111-0 옆,노상 주차장,시간제 주차장,,13,유료,900,1900,900,1500,0,0,무료,유료,250000,1000,10,1000,10,0,37.57521215,126.9787923
삼청공원앞(구),종로구 삼청동 25-11 ,노상 주차장,시간제 주차장,,18,유료,900,2100,900,1700,0,0,무료,유료,180000,500,10,500,10,0,37.58734003,126.9826111
동일상가아파트 이륜전용주차장(구),종로구 숭인동 234-81,노상 주차장,이륜차 전용 주차장,,8,무료,0,0,0,0,0,0,유료,유료,0,0,0,0,0,0,37.57147582,127.0192248
숭인상가아파트 이륜전용주차장(구),종로구 숭인동 204-14,노상 주차장,이륜차 전용 주차장,,6,무료,0,0,0,0,0,0,유료,유료,0,0,0,0,0,0,37.57207033,127.0206794
태화관(구),종로구 인사동 194-27 ,노상 주차장,시간제 주차장,02-2236-0052,11,유료,1000,2000,900,1500,0,0,무료,유료,250000,1000,10,1000,10,0,37.57229875,126.9845238
종로3가역(구),종로구 묘동 21-0 ,노상 주차장,시간제 주차장,02-2236-0052,5,유료,1000,2200,900,1700,0,0,무료,유료,250000,1000,10,1000,10,0,37.57263054,126.9919582
태화관(구),종로구 관훈동 194-27 ,노상 주차장,시간제 주차장,02-2236-0052,5,유료,1000,2000,900,1500,0,0,무료,유료,250000,1000,10,1000,10,0,37.57235875,126.9849457
원서공원(구),종로구 와룡동 206-0 ,노상 주차장,시간제 주차장,,15,유료,900,1900,900,1500,0,0,무료,유료,180000,500,10,500,10,0,37.57806188,126.9893414
광화문빌딩(구),종로구 당주동 40-9 ,노상 주차장,시간제 주차장,,16,유료,1000,2200,1000,1600,0,0,무료,유료,250000,1000,10,1000,10,0,37.57158924,126.9730718
종로3가역(구),종로구 봉익동 36-11 ,노상 주차장,시간제 주차장,02-2236-0052,49,유료,1000,2200,900,1700,0,0,무료,유료,250000,1000,10,1000,10,0,37.57232651,126.9935923
롯데캐슬 뒤 이륜전용주차장(구),종로구 숭인동 76-1,노상 주차장,이륜차 전용 주차장,,8,무료,0,0,0,0,0,0,유료,유료,0,0,0,0,0,0,37.57414301,127.0165728
보문로7길 이륜전용주차장(구),종로구 숭인동 1489-1,노상 주차장,이륜차 전용 주차장,,6,무료,0,0,0,0,0,0,유료,유료,0,0,0,0,0,0,37.57753005,127.0225433
종로40길 이륜자동차주차장(구),종로구 종로6가 318-3 ,노상 주차장,이륜차 전용 주차장,,111,무료,0,0,0,0,0,0,유료,유료,0,0,0,0,0,0,37.57029206,127.0068162
세운상가밑(구),종로구 장사동 116-3 ,노상 주차장,시간제 주차장,,34,유료,900,1900,900,1500,0,0,무료,유료,250000,1000,10,1000,10,0,37.5695652,126.9954784
청계7가(시),종로구 창신동 436-87,노상 주차장,시간제 주차장,02-864-8400,38,유료,900,1900,900,1500,0,0,무료,유료,0,500,5,650,5,0,37.57063505,127.0176964
종각(구),종로구 관철동 45-9 ,노상 주차장,시간제 주차장,,13,유료,1000,2000,1000,1600,0,0,무료,유료,250000,1000,10,1000,10,0,37.56955581,126.9837815
창대교회 옆 이륜전용주차장(구),종로구 숭인동 62-9,노상 주차장,이륜차 전용 주차장,,2,무료,0,0,0,0,0,0,유료,유료,0,0,0,0,0,0,37.57457238,127.0163165
탑골공원(구),종로구 낙원동 38-5,노상 주차장,시간제 주차장,02-2236-0052,8,유료,1000,2200,1000,2200,1000,1800,무료,무료,250000,1000,10,1000,10,0,37.5719321,126.9878713
원서공원(구),종로구 원서동 206-0 ,노상 주차장,시간제 주차장,,2,유료,900,1900,900,1500,0,0,무료,유료,180000,500,10,500,10,0,37.57849518,126.9893066
청계3(창경궁로_북1)(시),종로구 예지동 140-1,노상 주차장,시간제 주차장,02-864-8400,14,유료,900,1900,900,1500,0,0,무료,유료,0,500,5,650,5,0,37.57008966,126.9979376
청계1(북)(시),종로구 관철동 13-14,노상 주차장,시간제 주차장,02-864-8400,11,유료,900,1900,900,1500,0,0,무료,유료,0,500,5,650,5,0,37.56829903,126.9880723
힐스테이트옆 이륜차 주차장(구)(구),종로구 숭인동 766-2 ,노상 주차장,이륜차 전용 주차장,,5,무료,0,0,0,0,0,0,유료,유료,0,0,0,0,0,0,37.57517533,127.0209557
창신쌍용2지구 북측 이륜차주차장(구),종로구 창신동 37-16 ,노상 주차장,이륜차 전용 주차장,,9,무료,0,0,0,0,0,0,유료,유료,0,0,0,0,0,0,37.58050978,127.0106145
탑골공원(구),종로구 종로2가 38-5,노상 주차장,시간제 주차장,02-2236-0052,7,유료,1000,2200,1000,2200,1000,1800,무료,무료,250000,1000,10,1000,10,0,37.57187402,126.9879402
한미빌딩옆(구),종로구 인사동 283-0 ,노상 주차장,시간제 주차장,,7,유료,1000,2000,900,1500,0,0,무료,유료,250000,1000,10,1000,10,0,37.57195793,126.9844611
한미빌딩옆(구),종로구 공평동 283-0 ,노상 주차장,시간제 주차장,,2,유료,1000,2000,900,1500,0,0,무료,유료,250000,1000,10,1000,10,0,37.57190485,126.9844778
낙원상가(시),종로구 낙원동 284-5,노상 주차장,시간제 주차장,02-2261-0815,34,유료,900,1900,900,1500,0,0,무료,유료,0,500,5,500,5,0,37.5722177,126.9878942
청계6(북)(시),종로구 종로6가 289-49,노상 주차장,시간제 주차장,02-864-8400,27,유료,0,2400,0,2400,0,2400,유료,유료,0,500,5,650,5,0,37.56996802,127.0104565
청계5(북1)(시),종로구 종로5가 458-2,노상 주차장,시간제 주차장,02-864-8400,25,유료,900,100,900,1500,1900,100,무료,무료,0,500,5,650,5,0,37.56982809,127.0047706
종로63가길 이륜자동차주차장(구),종로구 숭인동 58-2 ,노상 주차장,이륜차 전용 주차장,,5,무료,0,0,0,0,0,0,유료,유료,0,0,0,0,0,0,37.57723288,127.0186436
청계2(북2)(시),종로구 관수동 91-4,노상 주차장,시간제 주차장,02-864-8400,9,유료,900,1900,900,1500,0,0,무료,유료,0,500,5,650,5,0,37.56895335,126.9973934
청계 화물(시),종로구 종로5가 490-0,노상 주차장,시간제 주차장,,1,유료,900,1900,900,1500,0,0,무료,유료,0,500,5,650,5,0,37.56982469,127.003778
낙산성곽길 이륜자동차주차장(구),종로구 창신동 67-2 ,노상 주차장,이륜차 전용 주차장,,23,무료,0,0,0,0,0,0,유료,유료,0,0,0,0,0,0,37.57219759,127.0095855
주공4~6단지주변(구),노원구 상계동 750-0 ,노상 주차장,시간제 주차장,,15,유료,900,1900,900,1800,0,0,무료,유료,0,250,5,0,5,0,37.65117735,127.0620979
주공11단지상가뒤(구),노원구 상계동 652-4 ,노상 주차장,시간제 주차장,,13,유료,900,1900,900,1800,900,1800,무료,무료,150000,250,5,0,0,33000,37.66467787,127.0571629
유경백화점뒤(구),노원구 중계동 364-16 ,노상 주차장,시간제 주차장,,36,유료,900,1900,900,1800,900,1800,무료,무료,150000,250,5,0,0,33000,37.6488485,127.0772181
주공12단지상가뒤(구),노원구 상계동 647-1 ,노상 주차장,시간제 주차장,,11,유료,900,1900,900,1800,900,1800,무료,무료,150000,250,5,0,0,33000,37.66675735,127.0579122
청구건영아파트옆(구),노원구 중계동 360-2 ,노상 주차장,시간제 주차장,,42,유료,900,1900,900,1800,900,1800,무료,무료,150000,250,5,0,0,33000,37.65034209,127.0754543
수락산디자인서울거리(구),노원구 상계동 1119-70 ,노상 주차장,시간제 주차장,,71,유료,900,1900,900,1800,900,1800,무료,무료,100000,150,5,0,0,19800,37.67454219,127.0591569
당고개전철밑(시),노원구 상계동 140-66,노상 주차장,시간제 주차장,02-2648-8292,88,유료,900,1900,900,1500,0,0,무료,유료,0,150,5,150,5,0,37.66418254,127.0759591
구청사주변(구),노원구 상계동 739-4 ,노상 주차장,시간제 주차장,,47,유료,900,1900,900,1800,900,1800,무료,무료,150000,250,5,0,0,33000,37.6547269,127.0559397
주공5단지옆(구),노원구 중계동 359-16 ,노상 주차장,시간제 주차장,,31,유료,900,1900,900,1800,900,1800,무료,무료,150000,250,5,0,0,33000,37.65217905,127.0768901
당고개위(시),노원구 상계동 111-568,노상 주차장,시간제 주차장,02-2648-8292,34,유료,900,2200,900,2200,900,2200,무료,무료,0,150,5,150,5,0,37.67042965,127.0805287
(구)북부지법주변(구),노원구 공릉동 594-0 ,노상 주차장,시간제 주차장,,19,유료,900,1900,900,1800,900,1800,무료,무료,150000,250,5,0,0,33000,37.62014574,127.0772323
구청사주변(구),노원구 상계동 739-2 ,노상 주차장,시간제 주차장,,35,유료,900,1900,900,1800,900,1800,무료,무료,150000,250,5,0,0,33000,37.65412392,127.056089
주공1~3단지주변(구),노원구 상계동 765-2 ,노상 주차장,시간제 주차장,,20,유료,900,1900,900,1800,0,0,무료,유료,0,250,5,0,5,0,37.64816619,127.0618641
주공7단지옆(구),노원구 상계동 693-5 ,노상 주차장,시간제 주차장,,17,유료,900,1900,900,1800,900,1800,무료,무료,150000,250,5,0,0,33000,37.65635067,127.0612152
신한증권옆(구),노원구 중계동 366-12 ,노상 주차장,시간제 주차장,,31,유료,900,1900,900,1800,900,1800,무료,무료,150000,250,5,0,0,33000,37.65123287,127.0774514
가압장앞(구),노원구 상계동 85-82 ,노상 주차장,시간제 주차장,,25,유료,1000,1900,900,1800,900,1800,무료,무료,100000,150,5,0,0,16200,37.66647222,127.0757404
주공1~3단지주변(구),노원구 상계동 745-0 ,노상 주차장,시간제 주차장,,24,유료,900,1900,900,1800,0,0,무료,유료,0,250,5,0,5,0,37.65104608,127.0608491
연희사러가쇼핑센터앞(구),서대문구 연희동 133-16 ,노상 주차장,시간제 주차장,,31,유료,900,1900,900,1500,0,0,무료,유료,0,250,5,0,0,0,37.56702513,126.9298922
인왕시장앞(구),서대문구 홍제동 295-3 ,노상 주차장,시간제 주차장,,64,유료,1000,1900,1000,1500,0,0,무료,유료,0,250,5,0,0,0,37.59145574,126.9438465
유진상가앞(구),서대문구 홍제동 294-1 ,노상 주차장,시간제 주차장,,64,유료,1000,1900,1000,1500,0,0,무료,유료,0,250,5,0,0,0,37.59157158,126.9436372
위례성길(구),송파구 방이동 181-7 ,노상 주차장,시간제 주차장,,16,유료,900,2100,900,2100,900,2100,무료,무료,0,250,5,0,0,0,37.51383896,127.1222286
위례성길(구),송파구 방이동 94-3 ,노상 주차장,시간제 주차장,,13,유료,900,2100,900,2100,900,2100,무료,무료,0,250,5,0,0,0,37.51667292,127.1143487
교통공원길(구),송파구 신천동 7-21 ,노상 주차장,시간제 주차장,,19,유료,900,2100,900,2100,900,2100,무료,무료,0,250,5,0,0,0,37.51501326,127.1008497
문정골길(구),송파구 문정동 41-14 ,노상 주차장,시간제 주차장,,23,유료,1000,2200,1000,2200,1000,2200,무료,무료,0,150,5,0,0,0,37.4891145,127.124274
봉상시길(구),송파구 잠실동 177-8 ,노상 주차장,시간제 주차장,,20,유료,900,2100,900,2100,900,2100,무료,무료,0,250,5,0,0,0,37.51083312,127.0800649
봉상시길(구),송파구 잠실동 194-4 ,노상 주차장,시간제 주차장,,23,유료,900,2100,900,2100,900,2100,무료,무료,0,250,5,0,0,0,37.51020959,127.0803848
비석거리(구),송파구 가락동 95-6 ,노상 주차장,시간제 주차장,,20,유료,900,2100,900,2100,900,2100,무료,무료,0,100,5,0,0,0,37.49658092,127.1169674
위례성길(방이습지)(구),송파구 오금동 97-39 ,노상 주차장,시간제 주차장,,20,유료,900,1800,900,1800,900,1800,무료,무료,0,150,5,0,0,0,37.50676755,127.1367281
위례성길(구),송파구 방이동 18-0 ,노상 주차장,시간제 주차장,,20,유료,900,2100,900,2100,900,2100,무료,무료,0,250,5,0,0,0,37.51463966,127.1199324
로데오길(구),송파구 가락동 107-18 ,노상 주차장,시간제 주차장,,6,유료,1000,2200,1000,2200,1000,2200,무료,무료,0,150,5,0,0,0,37.49010814,127.1233889
로데오길(구),송파구 문정동 3-2 ,노상 주차장,시간제 주차장,,12,유료,1000,2200,1000,2200,1000,2200,무료,무료,0,150,5,0,0,0,37.49056587,127.1247733
위례성길(방이습지)(구),송파구 방이동 97-44 ,노상 주차장,시간제 주차장,,1,유료,900,1800,900,1800,900,1800,무료,무료,0,150,5,0,0,0,37.50794958,127.1366367
위례성길(구),송파구 방이동 11-0 ,노상 주차장,시간제 주차장,,17,유료,900,2100,900,2100,900,2100,무료,무료,0,250,5,0,0,0,37.51595816,127.1162483
교통공원길(구),송파구 신천동 10-2 ,노상 주차장,시간제 주차장,,11,유료,900,2100,900,2100,900,2100,무료,무료,0,250,5,0,0,0,37.51644054,127.1035863
성내역(시),송파구 신천동 11-1,노상 주차장,시간제 주차장,02-445-0501,30,유료,900,1800,900,1500,0,0,무료,유료,100000,150,5,150,5,0,37.51757323,127.1050743
동작대교(위)(시),동작구 동작동 316-3,노상 주차장,시간제 주차장,031-903-3345,50,유료,1300,2200,1300,2200,1300,2200,무료,무료,0,150,5,150,5,0,37.5054293,126.9800431
한강대교(남)(시),동작구 본동 5-5,노상 주차장,시간제 주차장,031-903-3345,25,유료,900,1900,900,1500,0,0,무료,유료,0,250,5,250,5,0,37.5133264,126.9565828
삼성동제1공영(구),관악구 신림동 808-117 ,노상 주차장,시간제 주차장,,75,유료,900,1900,900,1600,0,0,무료,유료,0,150,5,0,0,0,37.46865603,126.9312254
삼성동제1공영(구),관악구 신림동 321-9 ,노상 주차장,시간제 주차장,,30,유료,900,1900,900,1600,0,0,무료,유료,0,150,5,0,0,0,37.46313786,126.9304785
신림동제2공영(구),관악구 신림동 1472-1 ,노상 주차장,시간제 주차장,,3,유료,1100,2100,1100,2100,1100,2000,무료,무료,0,250,5,0,0,0,37.48408033,126.925752
낙성대제2공영(구),관악구 봉천동 296-0 ,노상 주차장,시간제 주차장,,26,유료,900,1900,900,1600,0,0,무료,유료,0,150,5,0,0,0,37.47471677,126.9598808
조원동제2공영(구),관악구 신림동 1675-8 ,노상 주차장,시간제 주차장,,55,유료,900,1900,900,1600,0,0,무료,유료,0,250,5,0,0,0,37.48370156,126.9026172
낙성대제1공영(구),관악구 봉천동 1627-10 ,노상 주차장,시간제 주차장,,23,유료,900,1900,900,1600,0,0,무료,유료,0,150,5,0,0,0,37.47787476,126.9587944
신림동제2공영(구),관악구 신림동 1472-4 ,노상 주차장,시간제 주차장,,30,유료,1100,2100,1100,2100,1100,2000,무료,무료,0,250,5,0,0,0,37.48518821,126.9244493
서원동제1공영(구),관악구 신림동 1642-7 ,노상 주차장,시간제 주차장,,34,유료,1100,2100,1100,2100,1100,2000,무료,무료,0,250,5,0,0,0,37.48345214,126.9270315
테헤란로26길(구),강남구 역삼동 803-8 ,노상 주차장,시간제 주차장,,12,유료,900,1900,0,0,0,0,유료,유료,150000,400,5,0,0,30000,37.49985735,127.0359946
선릉로146길(구),강남구 청담동 77-27 ,노상 주차장,시간제 주차장,,33,유료,900,1900,0,0,0,0,유료,유료,150000,400,5,0,0,30000,37.52185835,127.0407277
선릉로132길(구),강남구 청담동 77-84 ,노상 주차장,시간제 주차장,,17,유료,900,1900,0,0,0,0,유료,유료,150000,400,5,0,0,30000,37.51818809,127.0426611
영동대로96길(구),강남구 삼성동 172-63 ,노상 주차장,시간제 주차장,,81,유료,900,1900,0,0,0,0,유료,유료,120000,300,5,0,0,24000,37.51080776,127.0633653
도산대로45길(구),강남구 신사동 668-23 ,노상 주차장,시간제 주차장,,46,유료,1000,2000,0,0,0,0,유료,유료,150000,400,5,0,0,30000,37.52380832,127.0355874
영동대로106길(구),강남구 삼성동 172-22 ,노상 주차장,시간제 주차장,,63,유료,900,1900,0,0,0,0,유료,유료,120000,300,5,0,0,24000,37.51318723,127.061367
테헤란로69길(구),강남구 삼성동 172-99 ,노상 주차장,시간제 주차장,,28,유료,900,1900,0,0,0,0,유료,유료,150000,400,5,0,0,30000,37.50674333,127.0525107
논현로28길(구),강남구 도곡동 524-0 ,노상 주차장,시간제 주차장,,70,유료,900,1900,0,0,0,0,유료,유료,120000,300,5,0,0,24000,37.48395493,127.0446947
헌릉로745길(구),강남구 율현동 101-10 ,노상 주차장,시간제 주차장,,244,유료,900,1900,0,0,0,0,유료,유료,120000,300,5,0,0,24000,37.47012337,127.1190473
언주로147길(구),강남구 논현동 279-22 ,노상 주차장,시간제 주차장,,13,유료,900,1900,0,0,0,0,유료,유료,150000,400,5,0,0,30000,37.51974811,127.0331264
남부순환로397길(구),강남구 대치동 600-13 ,노상 주차장,시간제 주차장,,83,유료,1000,2000,0,0,0,0,유료,유료,120000,300,5,0,0,24000,37.49301215,127.057886
언주로171길(구),강남구 신사동 668-11 ,노상 주차장,시간제 주차장,,29,유료,900,1900,0,0,0,0,유료,유료,150000,400,5,0,0,30000,37.52759968,127.0320211
봉은사로68길(구),강남구 삼성동 172-72 ,노상 주차장,시간제 주차장,,76,유료,900,1900,0,0,0,0,유료,유료,150000,400,5,0,0,30000,37.50870253,127.0527827
테헤란로64길(구),강남구 대치동 1011-11 ,노상 주차장,시간제 주차장,,12,유료,900,1900,0,0,0,0,유료,유료,150000,400,5,0,0,30000,37.50466602,127.0510755
대치유수지(구),강남구 대치동 78-30 ,노상 주차장,시간제 주차장,,99,유료,900,1900,0,0,0,0,유료,유료,80000,200,5,0,0,16000,37.5061531,127.0681796
개봉1동노상(구),구로구 개봉동 416-285  ,노상 주차장,시간제 주차장,,98,유료,900,1800,900,1800,900,1800,무료,무료,0,100,5,0,0,0,37.49654867,126.8547661
압구정로29길(구),강남구 압구정동 453-0 ,노상 주차장,시간제 주차장,,175,유료,900,1900,0,0,0,0,유료,유료,80000,200,5,0,0,16000,37.52966891,127.0279925
영동6교밑(시),강남구 대치동 512-1,노상 주차장,시간제 주차장,02-445-0501,39,유료,900,1900,900,1700,900,1700,무료,무료,0,150,5,150,5,0,37.49448397,127.0709625
강남대로150길(구),강남구 논현동 280-1 ,노상 주차장,시간제 주차장,,9,유료,1000,2000,0,0,0,0,유료,유료,150000,400,5,0,0,30000,37.51574589,127.0203324
은마아파트(구),강남구 대치동 316-0 ,노상 주차장,시간제 주차장,,59,유료,900,1900,0,0,0,0,유료,유료,120000,300,5,0,0,24000,37.49906687,127.0635894
일원동맛의거리(구),강남구 일원동 709-13 ,노상 주차장,시간제 주차장,,27,유료,1100,2100,0,0,0,0,유료,유료,50000,100,5,0,0,10000,37.49014256,127.0840914
압구정고가2(시),강남구 신사동 668-0,노상 주차장,시간제 주차장,02-445-0501,18,유료,900,2000,900,2100,900,2100,무료,무료,0,500,5,500,5,0,37.52579172,127.0283647
개봉역(중앙)(시),구로구 개봉동 403-10,노상 주차장,시간제 주차장,031-405-8808,30,유료,900,2200,900,1500,0,0,무료,유료,0,250,5,250,5,0,37.49442184,126.856283
온수역(남)노상(시),구로구 온수동 51-26,노상 주차장,시간제 주차장,031-405-8808,43,유료,900,1900,900,1500,0,0,무료,유료,65000,100,5,100,5,0,37.49197101,126.8241372
제방도로(시),구로구 구로동 69-5,노상 주차장,시간제 주차장,032-872-7078,16,유료,900,1900,900,1500,0,0,무료,유료,0,150,5,150,5,0,37.49968261,126.8928507
개봉역(남단)(시),구로구 개봉동 403-31,노상 주차장,시간제 주차장,031-405-8808,30,유료,900,1900,900,1500,0,0,무료,유료,0,250,5,250,5,0,37.49328733,126.8561958
대림역2(시),구로구 구로동 73-9,노상 주차장,시간제 주차장,,35,유료,900,1900,900,1500,0,0,무료,유료,0,150,5,150,5,0,37.49607455,126.8936272
구로고가밑(시),구로구 가리봉동 127-30,노상 주차장,시간제 주차장,031-405-8808,11,유료,900,1900,900,1500,0,0,무료,유료,0,250,5,250,5,0,37.47942217,126.8894618
화곡8동 배다리동길(구),강서구 화곡동 890-0 ,노상 주차장,시간제 주차장,,108,유료,900,1900,900,1500,0,0,무료,유료,120000,200,5,200,5,10000,37.52890484,126.8497004
가양3동 황금내공원길(구),강서구 가양동 1485-0 ,노상 주차장,시간제 주차장,02-2607-9113,80,유료,900,1900,900,1500,0,0,무료,유료,50000,100,5,100,5,5000,37.56330394,126.8613526
화곡4동 배다리동길(구),강서구 화곡동 842-11 ,노상 주차장,시간제 주차장,02-2607-9113,82,유료,900,1900,900,1500,0,0,무료,유료,120000,200,5,200,5,10000,37.53014929,126.8600198
화곡2동 배다리동길(구),강서구 화곡동 881-14 ,노상 주차장,시간제 주차장,02-2607-9113,209,유료,900,1900,900,1500,0,0,무료,유료,120000,200,5,200,5,10000,37.52904061,126.8520895
화곡1동 달구지길(구),강서구 화곡동 361-1,노상 주차장,시간제 + 거주자 주차장,02-2607-9113,29,유료,900,1900,900,1500,0,0,무료,무료,120000,250,5,250,5,10000,37.5335148,126.8383195
화곡1동 배다리서길(구),강서구 화곡동 914-3 ,노상 주차장,시간제 주차장,02-2607-9113,299,유료,900,1900,900,1500,0,0,무료,유료,120000,250,5,250,5,10000,37.52815258,126.8401909
방신시장 고객주차장(구),강서구 방화동 858-0 ,노상 주차장,시간제 주차장,02-2666-4080,10,유료,900,1900,900,1900,0,0,무료,유료,60000,500,10,0,0,0,37.57204379,126.8135187
등촌3동 꿈나무길(구),강서구 등촌동 701-0 ,노상 주차장,시간제 주차장,02-2607-9113,59,유료,900,1900,900,1500,0,0,무료,유료,120000,250,5,250,5,10000,37.56073107,126.8469772
등촌3동 구암길(구),강서구 등촌동 695-0,노상 주차장,시간제 주차장,02-2607-9113,52,유료,900,1900,900,1500,0,0,무료,유료,120000,250,5,250,5,10000,37.56124511,126.8461576
망원 유료 주차장(구),마포구 망원동 394-79 ,노상 주차장,시간제 주차장,,87,유료,900,1900,0,0,0,0,유료,유료,0,150,5,150,5,0,37.55459028,126.9011057
방화로(시),강서구 공항동 796-0 ,노상 주차장,시간제 주차장,031-903-3345,62,유료,900,1800,0,0,0,0,유료,유료,0,100,5,100,5,0,37.55547754,126.8166202
제물포로(시),강서구 화곡동 947-3,노상 주차장,시간제 주차장,02-2663-6209,88,유료,900,1900,900,1500,0,0,무료,유료,0,150,5,150,5,0,37.52935983,126.8587515
화곡6동 신학대길(구),강서구 화곡동 980-19 ,노상 주차장,시간제 주차장,02-2607-9113,51,유료,900,1900,900,1500,0,0,무료,유료,120000,250,5,250,5,10000,37.55043073,126.8503151
경남 공영주차장(구),마포구 서교동 376-5 ,노상 주차장,시간제 주차장,,22,유료,1100,2100,1100,2100,0,0,무료,유료,0,250,5,250,5,0,37.55399981,126.9190031
홍대서측 노상 공영주차장(구),마포구 서교동 366-19,노상 주차장,시간제 주차장,,168,유료,1200,2300,1200,2300,1200,2300,무료,무료,0,400,5,400,5,0,37.55114502,126.9213372
화곡6동 방죽길(구),강서구 화곡동 1112-1 ,노상 주차장,시간제 주차장,02-2607-9113,65,유료,900,1900,900,1500,0,0,무료,유료,0,250,5,250,5,10000,37.55244106,126.8509991
동교동 노상 공영주차장(구),마포구 서교동 332-1,노상 주차장,시간제 주차장,,67,유료,1100,2100,1100,2100,1100,2100,무료,무료,120000,400,5,400,5,0,37.55675242,126.9269787
새물결 노상 공영주차장(구),마포구 동교동 165-1,노상 주차장,시간제 주차장,,17,유료,1200,2300,1200,2300,1200,2300,무료,무료,0,400,5,400,5,0,37.55645301,126.924933
용강동 노상 공영주차장(구),마포구 용강동 122-15,노상 주차장,시간제 주차장,,54,유료,1200,2200,1200,1800,0,0,무료,유료,0,250,5,250,5,0,37.5396973,126.9437561
청기와 유료 주차장(구),마포구 서교동 479-4 ,노상 주차장,시간제 주차장,,84,유료,900,1900,0,0,0,0,유료,유료,0,250,5,250,5,0,37.55775244,126.9135971
연남 유료 주차장(구),마포구 연남동 228-23 ,노상 주차장,시간제 주차장,,78,유료,1000,2100,1000,2100,0,0,무료,유료,0,250,5,250,5,0,37.56207319,126.9244254
합정 노상 공영주차장(구),마포구 서교동 394-22,노상 주차장,시간제 주차장,,29,유료,1200,2300,1200,2300,1200,2300,무료,무료,0,400,5,400,5,0,37.5489203,126.9164528
그린빌딩옆 노상 공영주차장(구),중구 남대문로5가 267-0 0,노상 주차장,시간제 주차장,02)2280-8365,33,유료,800,2200,900,2200,0,0,무료,유료,180000,250,5,250,5,0,37.55605103,126.9766845
뉴국제호텔 앞 노상 공영주차장(구),중구 태평로1가 18-0 0,노상 주차장,시간제 주차장,02)842-0024,17,유료,800,2200,900,2200,0,0,무료,유료,250000,600,5,600,5,0,37.56820106,126.9779532
청계3(창경궁로_남)(시),중구 주교동 123-1 0,노상 주차장,시간제 주차장,02-864-8400,12,유료,900,1500,900,1500,0,0,무료,유료,0,500,5,650,5,0,37.56790593,126.9979848
청계3(남)(시),중구 주교동 51-3 0,노상 주차장,시간제 주차장,02-864-8400,23,유료,900,1900,900,1500,0,0,무료,유료,0,500,5,650,5,0,37.56878808,126.9983756
중앙의료원옆 이륜자동차 주차장(구),중구 을지로6가 18-79 0,노상 주차장,이륜차 전용 주차장,02)3396-6262,12,무료,0,0,0,0,0,0,유료,유료,0,0,0,0,0,0,37.56724706,127.0071772
훈련원공원 노상 공영주차창(구),중구 을지로6가 1-42 0,노상 주차장,시간제 주차장,02)2280-8367,8,유료,800,2200,900,2200,0,0,무료,유료,0,350,5,350,5,0,37.5676955,127.0050442
동대문비즈센터앞 이륜자동차 주차장(구),중구 신당동 200-5 0,노상 주차장,이륜차 전용 주차장,02)3396-6262,9,무료,0,0,0,0,0,0,유료,유료,0,0,0,0,0,0,37.56649529,127.0128049
청계5(방산동)(시),중구 방산동 5-0 0,노상 주차장,시간제 주차장,02-864-8400,36,유료,900,100,900,1500,1900,100,무료,무료,0,500,5,600,5,0,37.56947899,127.0032053
이화여고 앞 노상 공영주차장(구),중구 순화동 1-1 0,노상 주차장,시간제 주차장,010-2340-3578,14,유료,800,2200,900,2200,0,0,무료,유료,180000,250,5,250,5,0,37.56532003,126.9684567
대림상가노상공영주차장(구),중구 산림동 174-0 0,노상 주차장,시간제 주차장,02)2280-8363,73,유료,800,2200,900,2200,0,0,무료,유료,250000,500,5,500,5,0,37.56822328,126.9955516
청계2(남)(시),중구 입정동 185-0 0,노상 주차장,시간제 주차장,02-864-8400,20,유료,900,1900,900,1500,0,0,무료,유료,0,500,5,650,5,0,37.56823223,126.9928524
배오개길 노상 공영주차장(시),중구 예관동 22-1 0,노상 주차장,시간제 주차장,02-2272-8821,9,유료,900,1900,900,1500,0,0,무료,유료,0,500,5,650,5,0,37.56552814,126.9981562
한진면세점앞 노상 공영주차장(구),중구 남대문로5가 533-0 0,노상 주차장,시간제 주차장,02)2280-8365,18,유료,900,2000,900,2200,0,0,무료,유료,180000,250,5,250,5,0,37.55622358,126.9753727
청계5(동호로_남)(시),중구 방산동 4-47 0,노상 주차장,시간제 주차장,02-864-8400,11,유료,900,1900,900,1500,0,0,무료,유료,0,250,5,500,5,0,37.5687419,127.0022465
청계5(평화시장)(시),중구 을지로6가 17-442 0,노상 주차장,시간제 주차장,02-2265-3531,20,유료,900,1900,900,1500,0,0,무료,유료,0,250,5,500,5,0,37.56955719,127.0084027
국제화재빌딩옆 노상 공영주차장(구),중구 남대문로5가 145-0 0,노상 주차장,시간제 주차장,02)3789-7756,12,유료,700,2100,800,2100,0,0,무료,유료,250000,500,5,500,5,0,37.55805043,126.9760182
한국은행뒤 노상공영주차장(구),중구 북창동 93-1 0,노상 주차장,시간제 주차장,02)2280-8365,25,유료,800,2200,900,2200,0,0,무료,유료,250000,600,5,600,5,0,37.56266346,126.9790556
당인 유료 주차장(구),마포구 합정동 362-1 ,노상 주차장,시간제 주차장,,47,유료,1100,2100,0,0,0,0,유료,유료,0,300,5,300,5,0,37.54749691,126.918125
남평화시장앞 노상공영주차장(구),중구 신당동 779-0 0,노상 주차장,시간제 주차장,02)2280-8367,31,유료,0,2400,0,2400,0,2400,유료,유료,250000,500,5,500,5,0,37.56889505,127.0113144
청계6(신평화)(시),중구 신당동 217-91 0,노상 주차장,시간제 주차장,,5,유료,900,100,900,1500,1900,100,무료,무료,0,250,5,500,5,0,37.56957219,127.011496
구민회관앞 이륜자동차주차장(구),중구 을지로6가 18-14 0,노상 주차장,이륜차 전용 주차장,02)3396-6262,20,무료,0,0,0,0,0,0,유료,유료,0,0,0,0,0,0,37.56821281,127.00644
맑은내길 노상공영주차장(구),중구 신당동 213-0 0,노상 주차장,시간제 주차장,02)2280-8367,17,유료,0,2400,0,2400,0,2400,유료,유료,250000,500,5,500,5,0,37.56871261,127.0121914
해운센터빌딩 앞 노상 공영주차장(구),중구 소공동 59-0 0,노상 주차장,시간제 주차장,010-4002-0307,9,유료,800,2200,900,2200,0,0,무료,유료,250000,600,5,600,5,0,37.563226,126.980777
다동쉼터 노상공영주차장(구),중구 다동 46-0 0,노상 주차장,시간제 주차장,010-4002-0307,7,유료,800,2200,900,2200,0,0,무료,유료,250000,600,5,600,5,0,37.56794535,126.9800734
돈화문로 노상 공영주차장(시),중구 을지로3가 296-24 0,노상 주차장,시간제 주차장,02-2272-8821,48,유료,900,1900,900,1500,0,0,무료,유료,0,500,5,650,5,0,37.5621994,126.9932122
조선호텔 앞 노상 공영주차장(구),중구 소공동 87-3 0,노상 주차장,시간제 주차장,02)842-0224,12,유료,800,2200,900,2200,0,0,무료,유료,250000,600,5,600,5,0,37.56390412,126.98005
청계2(충무로)(시),중구 입정동 181-0 0,노상 주차장,시간제 주차장,02-864-8400,13,유료,900,1900,900,1500,0,0,무료,유료,0,500,5,650,5,0,37.56758476,126.992564
한국관광공사옆 노상공영주차장(구),중구 다동 18-0 0,노상 주차장,시간제 주차장,010-4002-0307,9,유료,800,2200,900,2200,0,0,무료,유료,250000,600,5,600,5,0,37.56829336,126.9820278
마른내길 이륜자동차주차장(구),중구 오장동 148-21 0,노상 주차장,이륜차 전용 주차장,02)3396-6262,6,무료,0,0,0,0,0,0,유료,유료,0,0,0,0,0,0,37.56452251,127.000153
중곡복개천 공영주차장(B)(구),광진구 중곡동 277-20,노상 주차장,시간제 주차장,02-456-2591,35,유료,900,1900,900,1500,0,0,무료,유료,100000,200,5,200,5,0,37.55959684,127.0870776
남대문시장2번게이트앞 이륜자동차주차장(시),중구 남대문로4가 3-6 0,노상 주차장,이륜차 전용 주차장,02)3396-6262,8,무료,0,0,0,0,0,0,유료,유료,0,0,0,0,0,0,37.56081624,126.9775485
마른내길 노상 공영주차장(시),중구 인현동1가 87-10 0,노상 주차장,시간제 주차장,02-2272-8821,41,유료,900,1900,900,1500,0,0,무료,유료,0,500,5,650,5,0,37.56425915,126.9973069
청소년회관 뒤 노상 공영주차장(구),중구 수표동 50-1 0,노상 주차장,시간제 주차장,010-2340-3578,8,유료,800,2200,900,2200,0,0,무료,유료,250000,500,5,500,5,0,37.56702739,126.9903721
삼풍상가 노상 공영주차장(구),중구 인현동2가 56-0 0,노상 주차장,시간제 주차장,02)2280-8367,102,유료,900,2000,900,1600,0,0,무료,유료,250000,500,5,500,5,0,37.56549602,126.9958404
청계1(남)(시),중구 수표동 65-4 0,노상 주차장,시간제 주차장,02-864-8400,17,유료,900,1900,900,1500,0,0,무료,유료,0,500,5,650,5,0,37.56813765,126.9916443
남대문시장3번게이트 이륜자동차주차장(시),중구 남대문로3가 13-3 0,노상 주차장,이륜차 전용 주차장,02)3396-6262,10,무료,0,0,0,0,0,0,유료,유료,0,0,0,0,0,0,37.56098007,126.9783264
서울스퀘어빌딩앞 이륜차 전용주차장(시),중구 남대문로5가 541-0 0,노상 주차장,이륜차 전용 주차장,02)3396-6262,10,무료,0,0,0,0,0,0,유료,유료,0,0,0,0,0,0,37.55505071,126.9732346
영국대사관 옆 노상 공영주차장(구),중구 정동 5-1 0,노상 주차장,시간제 주차장,010-4002-0307,13,유료,800,2200,900,2200,0,0,무료,유료,250000,600,5,600,5,0,37.56659421,126.9765582
남대문시장연세상가앞 이륜자동차주차장(시),중구 남창동 235-1 0,노상 주차장,이륜차 전용 주차장,02)3396-6262,19,무료,0,0,0,0,0,0,유료,유료,0,0,0,0,0,0,37.5575941,126.9764276
남산케이블카 노상 공영주차장(시),중구 회현동1가 1-19 0,노상 주차장,시간제 주차장,02-2663-6209,22,유료,900,2100,900,2100,900,2100,무료,무료,0,250,5,250,5,0,37.55570135,126.9838385
중앙우체국옆 이륜자동차주차장(구),중구 충무로1가 15-0 0,노상 주차장,이륜차 전용 주차장,02)3396-6262,23,무료,0,0,0,0,0,0,유료,유료,0,0,0,0,0,0,37.56198513,126.9816314
을지로(시),중구 을지로3가 282-8 0,노상 주차장,시간제 주차장,02-2272-8821,101,유료,900,1900,900,1500,0,0,무료,유료,0,250,5,500,5,0,37.56674238,127.0013472
청계8가 노상 공영주차장(시),중구 흥인동 162-1 0,노상 주차장,시간제 주차장,02)2280-8367,19,유료,900,1900,900,1500,0,0,무료,유료,0,500,5,650,5,0,37.56973295,127.016434
남산파출소 노상 공영주차장(시),중구 회현동1가 1-16 0,노상 주차장,시간제 주차장,02-2663-6209,13,유료,900,1900,900,1500,0,0,무료,유료,0,500,10,500,10,0,37.55486044,126.9819955
남산소파길 노상 공영주차장(구),중구 예장동 8-172 0,노상 주차장,시간제 주차장,02)3396-6262,13,유료,900,2100,900,2100,900,2100,무료,무료,0,250,5,250,5,0,37.55669584,126.9854006
진양상가노상공영주차장(구),중구 인현동2가 181-0 0,노상 주차장,시간제 주차장,02)2280-8367,102,유료,900,1900,900,1500,0,0,무료,유료,250000,500,5,500,5,0,37.56255522,126.9957503
동서울 호텔길(A) 공영주차장(구),광진구 자양동 695-0 ,노상 주차장,시간제 주차장,,41,유료,900,1800,900,1500,0,0,무료,유료,0,250,5,250,5,0,37.53087927,127.0917864
신성시장길공영노상주차장(구),광진구 중곡동 83-23,노상 주차장,시간제 주차장,,9,유료,900,1900,900,1500,0,0,무료,유료,100000,250,5,250,5,0,37.55752829,127.0897252
중곡복개천 공영주차장(구),광진구 중곡동 150-196,노상 주차장,시간제 주차장,,41,유료,900,1800,900,1500,0,0,무료,유료,100000,200,5,250,10,0,37.56093251,127.085048
동서울 호텔길(A) 공영주차장(구),광진구 자양동 695-0,노상 주차장,시간제 주차장,,19,유료,900,1900,900,1500,0,0,무료,유료,100000,250,5,250,5,0,37.53141346,127.0917531
동서울 호텔길(B) 공영주차장(구),광진구 자양동 735-0,노상 주차장,시간제 주차장,,19,유료,900,1900,900,1500,0,0,무료,유료,100000,250,5,250,5,0,37.5330472,127.0915882
동서울 호텔길(A) 공영주차장(구),광진구 구의동 695-0,노상 주차장,시간제 주차장,,34,유료,900,1800,900,1500,0,0,무료,유료,0,250,5,250,5,0,37.53377001,127.0917309
동서울 호텔길(B) 공영주차장(구),광진구 구의동 735-0,노상 주차장,시간제 주차장,,34,유료,900,1800,900,1500,0,0,무료,유료,0,250,5,250,5,0,37.5325392,127.0918327
신성시장길공영노상주차장(구),광진구 중곡동 88-21,노상 주차장,시간제 주차장,02-456-2591,26,유료,900,1900,900,1500,0,2400,무료,유료,100000,250,5,250,5,0,37.55599762,127.0918855
천호2동제2(구),강동구 천호동 431-2,노상 주차장,시간제 주차장,02-478-6147,5,유료,900,2000,900,2000,900,2000,무료,무료,0,250,5,0,0,0,37.54006137,127.1230263
송림기사식당길(B) 공영주차장(구),광진구 자양동 601-9,노상 주차장,시간제 주차장,02-2049-4540,9,유료,900,1900,900,1500,0,0,무료,유료,90000,200,5,200,5,0,37.53225591,127.0755382
신성시장길노상공영주차장(구),광진구 구의동 558-11,노상 주차장,시간제 주차장,02-456-2591,4,유료,900,1900,900,1500,0,0,무료,유료,100000,250,5,250,5,0,37.5546375,127.0938959
송림 기사식당길 공영주차장(구),광진구 자양동 227-1,노상 주차장,시간제 주차장,,45,유료,900,1900,900,1500,0,0,무료,유료,90000,200,5,200,5,0,37.53734311,127.0767978
송림 기사식당길 공영주차장(구),광진구 자양동 794-0,노상 주차장,시간제 주차장,02-2049-4540,39,유료,900,1900,900,1500,0,0,무료,유료,90000,200,5,200,5,0,37.53425598,127.0761313
주양쇼핑앞 거주자우선주차장(구),강동구 명일동 51-1 ,노상 주차장,시간제 + 거주자 주차장,,51,유료,900,1900,900,1500,0,0,무료,무료,100000,250,5,250,5,0,37.55184069,127.153122
주양쇼핑옆(구),강동구 명일동 47-21,노상 주차장,시간제 + 거주자 주차장,,45,유료,900,1900,900,1500,0,0,무료,무료,100000,250,5,250,5,0,37.55283718,127.1531269
거주자우선주차장(구),강동구 성내동 540-0 ,노상 주차장,시간제 + 거주자 주차장,,32,유료,900,1900,900,1500,0,0,무료,무료,100000,250,5,250,5,0,37.53054877,127.1237077
유진골프장(구),금천구 독산동 1081-2 ,노상 주차장,시간제 주차장,,40,유료,800,1900,0,0,0,0,유료,유료,100000,500,10,500,10,15000,37.46888952,126.8884353
서광모드(B)(구),금천구 가산동 60-33,노상 주차장,시간제 주차장,,14,유료,800,1900,0,0,0,0,유료,유료,100000,500,10,500,10,15000,37.47518894,126.8858121
덕성엔앰피(구),금천구 가산동 345-15,노상 주차장,시간제 주차장,,27,유료,800,1900,0,0,0,0,유료,유료,100000,500,10,500,10,15000,37.47232141,126.8827848
요업기술원-LG전자뒤(구),금천구 가산동 237-101,노상 주차장,시간제 주차장,,55,유료,800,1900,0,0,0,0,유료,유료,100000,500,10,500,10,15000,37.47444327,126.890474
웅진코웨이~sk트윈타워(구),금천구 가산동 345-2,노상 주차장,시간제 주차장,,48,유료,800,1900,0,0,0,0,유료,유료,100000,500,10,500,10,15000,37.47372445,126.8844729
범일운수~신세계물류센터(구),금천구 독산동 1001-2,노상 주차장,시간제 주차장,,45,유료,800,1900,0,0,0,0,유료,유료,100000,500,10,500,10,15000,37.46888335,126.8895855
가산중뒤(구),금천구 독산동 300-21,노상 주차장,시간제 주차장,,23,유료,800,1900,0,0,0,0,유료,유료,100000,500,10,500,10,15000,37.46813298,126.8940698
두산공원A~B(구),금천구 가산동 153-18 ,노상 주차장,시간제 주차장,,19,유료,800,1900,0,0,0,0,유료,유료,100000,500,10,500,10,15000,37.47366909,126.8925132
모아래5길~천주교성당뒤(구),금천구 독산동 336-3,노상 주차장,시간제 주차장,,25,유료,800,1900,0,0,0,0,유료,유료,100000,500,10,500,10,15000,37.47193243,126.8904319
두산공원A~B(구),금천구 독산동 298-1 ,노상 주차장,시간제 주차장,,14,유료,800,1900,0,0,0,0,유료,유료,100000,500,10,500,10,15000,37.47305162,126.8943598
삼성물산~마이크로오피스(구),금천구 가산동 345-26,노상 주차장,시간제 주차장,,28,유료,800,1900,0,0,0,0,유료,유료,100000,500,10,500,10,15000,37.47247638,126.8822739
조양화학(구),금천구 독산동 336-25,노상 주차장,시간제 주차장,,16,유료,800,1900,0,0,0,0,유료,유료,100000,500,10,500,10,15000,37.47149651,126.8872811
조양화학(구),금천구 가산동 336-25,노상 주차장,시간제 주차장,,36,유료,800,1900,0,0,0,0,유료,유료,100000,500,10,500,10,15000,37.47340045,126.8864327
신천지(구),금천구 독산동 152-1 ,노상 주차장,시간제 주차장,,22,유료,800,1900,0,0,0,0,유료,유료,100000,500,10,500,10,15000,37.47279762,126.8976187
독산동 금천교(시),금천구 독산동 181-4,노상 주차장,시간제 주차장,031-405-8808,23,유료,900,1900,900,1500,0,0,무료,유료,0,250,5,250,5,0,37.46658707,126.8898868
세일철강~LG전자연구소(구),금천구 가산동 319-15,노상 주차장,시간제 주차장,,28,유료,800,1900,0,0,0,0,유료,유료,100000,500,10,500,10,15000,37.47246596,126.88519
가산디지털환승(구),금천구 가산동 35-2,노상 주차장,시간제 주차장,,41,유료,830,1900,0,0,0,0,유료,유료,65000,150,5,0,0,10000,37.48356499,126.8819704
모아래5길~천주교성당뒤(구),금천구 가산동 237-123,노상 주차장,시간제 주차장,,1,유료,800,1900,0,0,0,0,유료,유료,100000,1500,30,500,10,15000,37.47321653,126.8907001
가산중앞(구),금천구 독산동 300-26,노상 주차장,시간제 주차장,,20,유료,800,1900,0,0,0,0,유료,유료,100000,500,10,500,10,15000,37.4689665,126.8949421
우리은행(구),금천구 가산동 140-41,노상 주차장,시간제 주차장,,13,유료,800,1900,1000,1900,1000,1900,무료,무료,100000,500,10,500,10,15000,37.47703489,126.8902123
통일중공업~천지산업(구),금천구 가산동 371-57,노상 주차장,시간제 주차장,,9,유료,800,1900,0,0,0,0,유료,유료,100000,500,10,500,10,15000,37.47816474,126.882671
LG텔레콤(구),금천구 가산동 60-36 ,노상 주차장,시간제 주차장,,43,유료,800,1900,1000,1900,1000,1900,무료,무료,100000,500,10,500,10,15000,37.47520246,126.8882259
삼환아파트(구),금천구 독산동 1004-6 ,노상 주차장,시간제 주차장,,24,유료,800,1900,0,0,0,0,유료,유료,100000,1500,30,500,10,15000,37.46482619,126.8914899
SJ테크노빌(구),금천구 가산동 60-19 ,노상 주차장,시간제 주차장,,37,유료,800,1900,1000,1900,1000,1900,무료,무료,100000,500,10,500,10,15000,37.47830171,126.8842748
서부간선도로(구),금천구 가산동 557-4,노상 주차장,시간제 주차장,,75,유료,800,1900,0,0,0,0,유료,유료,100000,500,10,500,10,15000,37.47199908,126.8813245
협동봉제조합(구),금천구 가산동 139-31 ,노상 주차장,시간제 주차장,,13,유료,800,1900,1000,1900,1000,1900,무료,무료,100000,500,10,500,10,15000,37.4792425,126.8884015
가산동금천교(시),금천구 가산동 691-3,노상 주차장,시간제 주차장,031-405-8808,50,유료,900,1900,900,1500,0,0,무료,유료,0,250,5,250,5,0,37.46597942,126.8870846
대륭1차~아톰(구),금천구 가산동 345-48,노상 주차장,시간제 주차장,,34,유료,800,1900,0,0,0,0,유료,유료,100000,500,10,500,10,15000,37.47173572,126.8827541
사조냉장-무등실업(구),금천구 독산동 303-2,노상 주차장,시간제 주차장,,28,유료,800,1900,0,0,0,0,유료,유료,100000,500,10,500,10,15000,37.4717525,126.8917905
방배복개도로제2지역 노상공영주차장(구),서초구 방배동 439-1,노상 주차장,시간제 주차장,010-3248-7364,99,유료,1000,2300,1000,2300,0,0,무료,유료,0,250,5,500,10,0,37.48408052,126.9827545
방배중앙로 노상공영주차장(구),서초구 방배동 760-3,노상 주차장,시간제 주차장,010-3378-9822,55,유료,1000,2000,1000,2000,0,0,무료,유료,0,250,5,500,10,0,37.49513255,126.9858743
반포복개천 노상공영주차장(구),서초구 반포동 57-0,노상 주차장,시간제 주차장,010-3378-9822,39,유료,900,2100,900,2100,0,0,무료,유료,0,400,5,800,10,0,37.50439538,127.009983
방배복개도로 제1지역 노상공영주차장(구),서초구 방배동 443-1,노상 주차장,시간제 주차장,010-9944-7000,100,유료,1000,2300,1000,2300,0,0,무료,유료,0,250,5,500,10,0,37.48071164,126.9825295
옥수역(시),성동구 옥수동 401-1,노상 주차장,시간제 주차장,02-2648-8292,41,유료,900,1900,900,1500,0,0,무료,유료,90000,100,5,100,5,0,37.5423127,127.0168533
성수2가3동거주자우선주차장(구),성동구 성수동2가 335-60 ,노상 주차장,시간제 주차장,02-461-0484,17,유료,900,1900,900,1500,0,0,무료,유료,80000,500,10,500,10,10000,37.53774114,127.0543382
마장동거주자우선주차장(구),성동구 마장동 812-0 ,노상 주차장,시간제 주차장,,124,유료,900,1800,900,1500,0,0,무료,유료,80000,250,5,250,5,10000,37.56513788,127.0390052
용답동거주자우선주차장(구),성동구 용답동 225-13 ,노상 주차장,시간제 주차장,,22,유료,900,1900,900,1500,0,0,무료,유료,80000,250,5,250,5,10000,37.56155078,127.0587252
성수2가3동거주자우선주차장(구),성동구 성수동2가 276-5 ,노상 주차장,시간제 주차장,,58,유료,900,1900,900,1500,0,0,무료,유료,80000,250,5,250,5,10000,37.54090793,127.0556792
마장축산물시장 남문(구),성동구 마장동 494-0 ,노상 주차장,시간제 주차장,,175,유료,900,1900,900,1900,0,0,무료,유료,80000,250,5,250,5,10000,37.56672319,127.0393937
마장축산물시장 현대아파트 앞 노상공영주차(구),성동구 마장동 84-0 ,노상 주차장,시간제 주차장,,59,유료,900,1900,900,1500,0,0,무료,유료,80000,250,5,250,5,10000,37.57023134,127.0431352
성수2가3동거주자우선주차장(구),성동구 성수동2가 277-43 ,노상 주차장,시간제 주차장,,224,유료,900,1900,900,1500,0,0,무료,유료,80000,250,5,250,5,10000,37.5461708,127.0618691
신정4동 로데오길(구),양천구 신정동 890-0,노상 주차장,시간제 주차장,02-2695-8597,52,유료,900,1900,900,1900,900,1900,무료,무료,0,300,10,300,10,9000,37.52815619,126.8617545
양천경찰서(시),양천구 신정동 321-0,노상 주차장,시간제 주차장,,34,유료,900,1900,900,1500,0,0,무료,유료,40000,150,5,150,5,0,37.51648297,126.8652536
신정4동길(구),양천구 신정동 902-0 ,노상 주차장,시간제 주차장,02-2695-8597,147,유료,900,1900,900,1300,0,0,무료,유료,130000,300,10,300,10,9000,37.52773187,126.8542201
한전뒷길(구),양천구 신정동 319-25,노상 주차장,시간제 주차장,,24,유료,900,1900,900,1300,0,0,무료,유료,70000,150,5,150,5,0,37.52035814,126.8689532
신월1동저지복개1구역(구),양천구 신월동 228-1,노상 주차장,시간제 주차장,02-2698-1386,56,유료,900,1900,900,1300,0,0,무료,유료,70000,300,10,300,10,9000,37.52975547,126.8376668
양천구청(시),양천구 신정동 321-4,노상 주차장,시간제 주차장,,74,유료,900,1900,900,1500,0,0,무료,유료,40000,150,5,150,5,0,37.51773009,126.8667083
양천공원옆(구),양천구 신정동 320-3,노상 주차장,시간제 주차장,,11,유료,900,1900,900,1300,0,0,무료,유료,70000,150,5,150,5,0,37.51895511,126.868601
교보생명 앞 노상주차장(구),영등포구 당산동2가 71-0 ,노상 주차장,시간제 + 거주자 주차장,02-2650-1436,26,유료,900,1900,900,1500,0,0,무료,무료,100000,500,10,500,10,15000,37.52138646,126.8917257
법안정사(시),양천구 목동 907-1 ,노상 주차장,시간제 주차장,,38,유료,900,2100,900,1500,0,0,무료,유료,0,250,5,250,5,0,37.5357057,126.8776644
부영그린(시),양천구 목동 908-27,노상 주차장,시간제 주차장,,18,유료,800,2100,800,2100,800,2100,무료,무료,0,250,5,250,5,0,37.53646124,126.8818349
롯데캐슬앞 노상주차장(구),영등포구 여의도동 36-0 ,노상 주차장,시간제 주차장,02-2650-1436,9,유료,900,1900,900,1500,0,0,무료,유료,200000,1000,10,1000,10,20000,37.52068684,126.926587
KBS연구관앞 노상주차장(구),영등포구 여의도동 18-1,노상 주차장,시간제 주차장,02-2650-1436,59,유료,900,1900,900,1500,0,0,무료,유료,200000,1000,10,1000,10,20000,37.52705213,126.9156194
현대41타워앞(구),양천구 목동 917-2 ,노상 주차장,시간제 주차장,,24,유료,900,1900,900,1900,900,1900,무료,무료,70000,300,10,300,10,0,37.52771987,126.8758523
신정13동 복개(구),양천구 신정동 1031-0 ,노상 주차장,시간제 주차장,02-2645-1158,139,유료,900,1900,900,1300,0,0,무료,유료,70000,300,10,300,10,9000,37.51990644,126.8538469
한국통신(시),양천구 목동 924-5,노상 주차장,시간제 주차장,,27,유료,900,1900,900,1500,0,0,무료,유료,0,250,5,250,5,0,37.52837693,126.8709399
신월1동저지복개2구역(구),양천구 신월동 90-1,노상 주차장,시간제 주차장,02-2698-1386,40,유료,900,1900,900,1300,0,0,무료,유료,70000,300,10,300,10,9000,37.53517912,126.8344786
신월5동복개주차장(구),양천구 신월동 53-2 ,노상 주차장,시간제 주차장,,63,유료,900,1900,900,1300,0,0,무료,유료,70000,300,10,300,10,0,37.53768107,126.8281077
양평고가밑(시),양천구 목동 900-8,노상 주차장,시간제 주차장,02-2663-6209,32,유료,900,1900,900,1500,0,0,무료,유료,0,250,5,250,5,0,37.53886769,126.8850888
진주아파트 옆 노상주차장(구),영등포구 여의도동 54-4 ,노상 주차장,시간제 주차장,02-2650-1436,56,유료,900,1900,900,1500,0,0,무료,유료,200000,1000,10,1000,10,20000,37.51806262,126.9325038
곰달래로5길 노상(구),양천구 신월동 126-36 ,노상 주차장,시간제 주차장,02-2698-1386,74,유료,900,1900,900,1300,0,0,무료,유료,70000,300,10,300,10,9000,37.53181162,126.8335575
교보생명옆 노상주차장(구),영등포구 당산동2가 21-26,노상 주차장,시간제 + 거주자 주차장,02-2650-1436,13,유료,900,1900,900,1500,0,0,무료,무료,80000,300,10,300,10,9000,37.52087468,126.8924586
세우빌딩 앞노상주차장(구),영등포구 여의도동 10-0,노상 주차장,시간제 주차장,02-2650-1436,13,유료,900,1900,900,1500,0,0,무료,유료,200000,1000,10,1000,10,20000,37.53011648,126.9250612
문래동주민센터 앞 노상주차장(구),영등포구 문래동3가 55-16,노상 주차장,시간제 + 거주자 주차장,02-2650-1436,13,유료,900,1900,900,1500,0,0,무료,무료,100000,500,10,500,10,15000,37.5168354,126.9001876
동문굿모닝탑 옆(구),양천구 신정동 324-3 ,노상 주차장,시간제 주차장,,17,유료,900,1900,900,1500,0,0,무료,유료,40000,150,5,150,5,0,37.51505445,126.8611636
한국거래소앞 노상주차장(구),영등포구 여의도동 33-0,노상 주차장,시간제 주차장,02-2650-1436,33,유료,900,1900,900,1500,0,0,무료,유료,200000,1000,10,1000,10,20000,37.52228229,126.9281173
태양빌딩앞 노상주차장(구),영등포구 여의도동 44-0,노상 주차장,시간제 주차장,02-2650-1436,11,유료,900,1900,900,1500,0,0,무료,유료,200000,1000,10,1000,10,20000,37.52092943,126.9295507
호성빌딩앞 노상주차장(구),영등포구 여의도동 44-22,노상 주차장,시간제 주차장,02-2650-1436,22,유료,900,1900,900,1500,0,0,무료,유료,200000,1000,10,1000,10,20000,37.52035524,126.9291421
KBS본관 앞 노상주차장(구),영등포구 여의도동 17-0 ,노상 주차장,시간제 주차장,02-2650-1436,71,유료,900,1900,900,1500,0,0,무료,유료,200000,1000,10,1000,10,20000,37.52546287,126.9179894
신흥증권앞 노상주차장(구),영등포구 여의도동 24-0,노상 주차장,시간제 주차장,02-2650-1436,15,유료,900,1900,900,1500,0,0,무료,유료,200000,500,5,500,5,20000,37.5242503,126.9267498
여의도공원앞3 노상주차장(구),영등포구 여의도동 16-0,노상 주차장,시간제 주차장,02-2650-1436,6,유료,900,1900,900,1500,0,0,무료,유료,200000,1000,10,1000,10,20000,37.52792339,126.9238217
산업은행앞 노상주차장(구),영등포구 여의도동 16-0 서울특별시 영등포구시설관리공단,노상 주차장,시간제 주차장,02-2650-1436,11,유료,900,1900,900,1500,0,0,무료,유료,200000,500,5,500,5,20000,37.52771304,126.9205009
렉싱턴호텔뒤 노상주차장(구),영등포구 여의도동 13-0,노상 주차장,시간제 주차장,02-2650-1436,12,유료,900,1900,900,1500,0,0,무료,유료,200000,1000,10,1000,10,20000,37.52946101,126.9220877
SK리더스뷰도로변 노상주차장(구),영등포구 문래동3가 55-13 ,노상 주차장,시간제 + 거주자 주차장,02-2650-1436,19,유료,900,1900,900,1500,0,0,무료,무료,100000,500,10,500,10,15000,37.51840618,126.9004228
대신시장 노상주차장(구),영등포구 신길동 116-15 ,노상 주차장,시간제 + 거주자 주차장,02-2650-1436,18,유료,900,1900,900,1500,0,0,무료,무료,50000,200,10,200,10,6000,37.5110737,126.9181374
당산고가 밑 이륜차 전용주차장(구),영등포구 당산동5가 1-2 ,노상 주차장,이륜차 전용 주차장,,1,무료,0,0,0,0,0,0,유료,유료,0,0,0,0,0,0,37.53329412,126.901493
한진해운 앞 노상주차장(구),영등포구 여의도동 25-11,노상 주차장,시간제 주차장,02-2650 -1436,17,유료,900,1900,900,1500,0,0,무료,유료,200000,1000,10,1000,10,20000,37.52298583,126.9252869
벽산디지털밸리앞 노상주차장(구),영등포구 문래동5가 5-0 ,노상 주차장,시간제 + 거주자 주차장,02-2650-1436,33,유료,900,1900,900,1500,0,0,무료,무료,100000,500,10,500,10,15000,37.51426884,126.8869554
당산고가밑(시),영등포구 당산동5가 9-15,노상 주차장,시간제 주차장,032-872-7078,23,유료,900,1900,900,1500,0,0,무료,유료,0,150,5,150,5,0,37.53249922,126.9007704
동아빌딩앞 노상주차장(구),영등포구 여의도동 14-0,노상 주차장,시간제 주차장,02-2650-1436,10,유료,900,1900,900,1500,0,0,무료,유료,200000,1000,10,1000,10,20000,37.52916488,126.9202955
가든예식장 앞 노상주차장(구),영등포구 여의도동 45-1,노상 주차장,시간제 주차장,02-2650-1436,7,유료,900,1900,900,1500,0,0,무료,유료,200000,1000,10,1000,10,20000,37.51996405,126.9282892
여의도공원앞1 노상주차장(구),영등포구 여의도동 17-0,노상 주차장,시간제 주차장,02-2650-1436,14,유료,900,1900,900,1500,0,0,무료,유료,200000,1000,10,1000,10,20000,37.52510902,126.9192897
MBC방송국뒤 노상주차장(구),영등포구 여의도동 31-0 ,노상 주차장,시간제 + 거주자 주차장,02-2650-1436,63,유료,900,1900,900,1500,0,0,무료,무료,200000,1000,10,1000,10,20000,37.52380328,126.9309812
화재보험협회 앞 노상주차장(구),영등포구 여의도동 35-0,노상 주차장,시간제 주차장,02-2650-1436,16,유료,900,1900,900,1500,0,0,무료,유료,200000,1000,10,1000,10,20000,37.5210968,126.9263433
미래에셋빌딩 앞 노상주차장(구),영등포구 여의도동 45-0,노상 주차장,시간제 주차장,02-2650-1436,24,유료,900,1900,900,1500,0,0,무료,유료,200000,1000,10,1000,10,20000,37.51946887,126.927799
삼각지역(구),용산구 한강로1가 138-0,노상 주차장,시간제 주차장,011-309-3162,12,유료,1130,2130,1130,1730,0,0,무료,유료,0,250,5,250,5,0,37.53451621,126.9737305
충신교회(구),용산구 이촌동 302-31,노상 주차장,시간제 주차장,010-9057-0978,23,유료,1100,2100,1100,1700,0,0,무료,유료,0,250,5,250,5,0,37.52025271,126.9672674
삼환아파트 앞 노상주차장(구),영등포구 문래동4가 41-0 ,노상 주차장,시간제 + 거주자 주차장,02-2650-1436,55,유료,900,1900,900,1500,0,0,무료,무료,100000,500,10,500,10,15000,37.51184415,126.8913364
한강쇼핑(구),용산구 이촌동 301-5,노상 주차장,시간제 주차장,010-6339-6431,15,유료,1000,2000,1000,1600,0,0,무료,유료,0,250,5,250,5,0,37.52066136,126.9713519
용산등기소(시),용산구 문배동 12-1,노상 주차장,시간제 주차장,02-2663-6209,15,유료,900,1900,900,1500,0,0,무료,유료,0,250,5,250,5,0,37.53700981,126.9696668
효창공원2(구),용산구 효창동 255-1,노상 주차장,시간제 주차장,02-712-7758,83,유료,800,1800,800,1400,0,0,무료,유료,0,250,5,250,5,0,37.54338354,126.9590231
성애병원 앞 노상주차장(구),영등포구 신길동 451-2 ,노상 주차장,시간제 주차장,02-2650-1436,2,유료,900,1900,900,1500,0,0,무료,유료,100000,500,10,500,10,15000,37.51181813,126.922222
도림고가 노상주차장(구),영등포구 문래동1가 39-0 ,노상 주차장,시간제 + 거주자 주차장,02-2650-1436,63,유료,900,1900,900,1500,0,0,무료,무료,50000,200,10,200,10,6000,37.51501828,126.9034182
경남아파트 앞 노상주차장(구),영등포구 당산동3가 56-0 ,노상 주차장,시간제 + 거주자 주차장,02-2650-1436,7,유료,900,1900,900,1500,0,0,무료,무료,50000,200,10,200,10,6000,37.52440572,126.902039
효창공원1(구),용산구 효창동 3-151,노상 주차장,시간제 주차장,010-5249-2009,60,유료,800,1800,800,1400,0,0,무료,유료,0,250,5,250,5,0,37.54591127,126.9594874
여의서로(시),영등포구 여의도동 8-1,노상 주차장,시간제 주차장,031-903-3345,106,유료,900,1900,900,1500,0,0,무료,유료,0,500,5,500,5,0,37.53313643,126.9172302
KBS별관옆 노상주차장(구),영등포구 여의도동 46-0,노상 주차장,시간제 주차장,02-2650-1436,20,유료,900,1900,900,1500,0,0,무료,유료,200000,1000,10,1000,10,20000,37.51871412,126.9305545
경남아파트 앞 노상주차장(구),영등포구 영등포동7가 56-0 ,노상 주차장,시간제 + 거주자 주차장,02-2650-1436,19,유료,900,1900,900,1500,0,0,무료,무료,50000,200,10,200,10,6000,37.5244721,126.9022934
국민일보사옥앞 노상주차장(구),영등포구 여의도동 12-0 ,노상 주차장,시간제 주차장,02-2650-1436,28,유료,900,1900,900,1500,0,0,무료,유료,200000,1000,10,1000,10,20000,37.52957037,126.9247877
영등포역 이륜자동차주차장(구),영등포구 영등포동3가 618-496 ,노상 주차장,이륜차 전용 주차장,,21,무료,0,0,0,0,0,0,유료,유료,0,0,0,0,0,0,37.51632821,126.9069144
영등포로터리(시),영등포구 영등포동3가 111-1,노상 주차장,시간제 주차장,032-872-7078,10,유료,900,1900,900,1500,0,0,무료,유료,0,250,5,250,5,0,37.51802565,126.9113848
우림시장공영주차장(구),중랑구 망우동 486-10,노상 주차장,시간제 주차장,02-436-3598,55,유료,900,1900,900,1500,0,0,무료,유료,0,250,5,250,5,0,37.59887283,127.0987375
중화동(시),중랑구 중화동 61-2,노상 주차장,시간제 주차장,,11,유료,900,1900,900,1500,0,0,무료,유료,0,100,5,100,5,0,37.59459804,127.0722642
나들목공영주차장(구),중랑구 중화동 304-36,노상 주차장,시간제 + 거주자 주차장,02-438-7210,117,유료,900,1900,900,1500,0,0,무료,무료,0,250,5,250,5,0,37.59862441,127.0775907
맛솜씨공영주차장(구),중랑구 망우동 490-21 ,노상 주차장,시간제 주차장,,69,유료,900,1900,900,1500,0,0,무료,유료,0,250,5,250,5,0,37.5979745,127.0945369
국민대앞북악주차(구),성북구 정릉동 880-1 ,노상 주차장,시간제 주차장,,6,유료,800,1900,800,1500,0,0,무료,유료,80000,150,5,300,10,10000,37.60947078,126.996919
여의도백화점 앞 노상주차장(구),영등포구 여의도동 36-1,노상 주차장,시간제 주차장,02-2650-1436,19,유료,900,1900,900,1500,0,0,무료,유료,200000,1000,10,1000,10,20000,37.5204097,126.9277962
양남사거리 앞 노상주차장(구),영등포구 양평동1가 30-0,노상 주차장,시간제 + 거주자 주차장,02-2650-1436,8,유료,900,1900,900,1500,0,0,무료,무료,100000,250,5,250,5,15000,37.52283912,126.8914841
국민은행앞 노상주차장(구),영등포구 여의도동 15-22 ,노상 주차장,시간제 주차장,02-2650-1436,15,유료,900,1900,900,1500,0,0,무료,유료,200000,1000,10,1000,10,20000,37.52888602,126.9187226
교보생명 앞 노상주차장(구),영등포구 양평동1가 71-0 ,노상 주차장,시간제 + 거주자 주차장,02-2650-1436,9,유료,900,1900,900,1500,0,0,무료,무료,100000,500,10,500,10,15000,37.52157165,126.8914055
홍우빌딩앞 노상주차장(구),영등포구 여의도동 43-0,노상 주차장,시간제 주차장,02-2650-1436,11,유료,900,1900,900,1500,0,0,무료,유료,200000,1000,10,1000,10,20000,37.52139515,126.9300739
영등포중앙시장 노상주차장(구),영등포구 영등포동7가 5-1 ,노상 주차장,시간제 + 거주자 주차장,02-2634-1308(5),8,유료,600,2000,600,2000,0,0,무료,무료,50000,200,10,200,10,6000,37.52228468,126.9085015
문래1동(시),영등포구 문래동3가 54-12,노상 주차장,시간제 주차장,032-872-7078,11,유료,900,1900,900,1500,0,0,무료,유료,0,250,5,250,5,0,37.51351439,126.8969428
중마루공원앞 노상주차장(구),영등포구 영등포동2가 222-0 ,노상 주차장,시간제 주차장,02-2635-8005,34,유료,900,1900,1900,1500,0,0,무료,유료,100000,500,10,500,10,15000,37.51948724,126.9112733
양평동(동)(시),영등포구 양평동5가 44-1,노상 주차장,시간제 주차장,032-872-7078,6,유료,900,1900,900,1500,0,0,무료,유료,0,100,5,100,5,0,37.53969074,126.8902226
경호빌딩앞 노상주차장(구),영등포구 여의도동 25-0 ,노상 주차장,시간제 주차장,02-2650 -1436,10,유료,900,1900,900,1500,0,0,무료,유료,200000,1000,10,1000,10,20000,37.52380843,126.9257909
영동대로85길(구),강남구 대치동 1012-19 ,노상 주차장,시간제 주차장,,95,유료,900,1900,0,0,0,0,유료,유료,150000,400,5,0,0,30000,37.50629266,127.0587253
거주자우선주차장(시),성동구 옥수동 343-4 ,노상 주차장,시간제 주차장,,8,유료,900,1900,900,1500,0,0,무료,유료,90000,100,5,100,5,0,37.54192328,127.0169632
논현로131길(구),강남구 논현동 279-99 ,노상 주차장,시간제 주차장,,23,유료,900,1900,0,0,0,0,유료,유료,150000,400,5,0,0,30000,37.51421863,127.0289224
코오롱빌딩옆 노상공영주차장(구),중구 태평로1가 82-0 0,노상 주차장,시간제 주차장,02)2280-8936,18,유료,800,2200,900,2200,0,0,무료,유료,250000,600,5,600,5,0,37.56761009,126.9783198
위례성길(방이습지)(구),송파구 오금동 97-44 ,노상 주차장,시간제 주차장,,19,유료,900,1800,900,1800,900,1800,무료,무료,0,150,5,0,0,0,37.50713148,127.1367035
위례성길(방이습지)(구),송파구 방이동 452-4 ,노상 주차장,시간제 + 버스전용 주차장,,15,유료,900,1800,900,1800,900,1800,무료,무료,0,150,5,0,0,0,37.50916595,127.1351049
매화공영주차장(구),중랑구 상봉동 85-41,노상 주차장,시간제 주차장,02-438-7210,28,유료,900,1900,900,1500,0,0,무료,유료,0,250,5,250,5,0,37.59492174,127.0895948
동작갯마을(구),동작구 동작동 102-65 ,노상 주차장,시간제 주차장,,52,유료,900,1900,900,1900,0,0,무료,유료,100000,150,5,0,0,35000,37.49593156,126.9825116
한신동성아파트옆(구),노원구 하계동 256-7 ,노상 주차장,시간제 주차장,,16,유료,900,1900,900,1800,900,1800,무료,무료,150000,250,5,0,0,33000,37.63981324,127.0743489
보라매병원앞(구),동작구 신대방동 395-61 ,노상 주차장,시간제 주차장,,37,유료,900,2200,900,2200,1100,2000,무료,무료,130000,250,5,0,0,35000,37.49179469,126.9228915
주공3단지상가주변(구),노원구 상계동 736-0 ,노상 주차장,시간제 주차장,,44,유료,900,1900,900,1800,900,1800,무료,무료,150000,250,5,0,0,33000,37.65312883,127.0591985
주공6단지상가주변(구),노원구 상계동 723-2 ,노상 주차장,시간제 주차장,,41,유료,900,1900,900,1800,900,1800,무료,무료,150000,250,5,0,0,33000,37.65337295,127.0616235
종로구 누하동   (구),종로구 누하동 7-0,노상 주차장,이륜차 전용 주차장,,7,무료,0,0,0,0,0,0,유료,유료,0,0,0,0,0,0,37.57985851,126.9686396
대치동507-3(구),강남구 대치동 507-3 ,노상 주차장,시간제 주차장,,27,유료,900,1900,0,0,0,0,유료,유료,120000,300,5,0,0,24000,37.49334084,127.0625352
기륭전자(구),금천구 가산동 219-7,노상 주차장,시간제 주차장,,33,유료,800,1900,0,0,0,0,유료,유료,100000,500,10,500,10,15000,37.47304631,126.8878444
주막거리공영주차장(구),중랑구 상봉동 127-19 ,노상 주차장,시간제 주차장,02-438-7210,26,유료,900,1900,900,1500,0,0,무료,유료,0,250,5,250,5,0,37.59350609,127.0791498
상봉복개(시),중랑구 상봉동 399-4,노상 주차장,시간제 주차장,02-2272-8821,63,유료,900,1900,900,1500,0,0,무료,유료,0,250,5,250,5,0,37.59591263,127.0900408
양남사거리 앞 노상주차장(구),영등포구 당산동2가 30-0,노상 주차장,시간제 + 거주자 주차장,02-2650-1436,8,유료,900,1900,900,1500,0,0,무료,무료,100000,250,5,250,5,15000,37.52236224,126.8915625
동부갯 공영주차장(구),중랑구 망우동 487-1,노상 주차장,시간제 주차장,02-438-7209,72,유료,900,1900,900,1500,0,0,무료,유료,0,250,5,250,5,0,37.59947535,127.0957675
묵중안공영주차장(구),중랑구 묵동 250-39,노상 주차장,시간제 + 거주자 주차장,,194,유료,900,1900,900,1500,0,0,무료,무료,0,250,5,250,5,0,37.61114896,127.0760045
창동역 (구)구청별관주차장(구),도봉구 창동 5-1,노상 주차장,시간제 주차장,,30,유료,1000,2000,1000,2000,1000,2000,무료,무료,0,250,5,0,0,0,37.65312879,127.0496692
노원세무서 앞 공영주차장(구),도봉구 창동 15-0,노상 주차장,시간제 주차장,,28,유료,800,1900,800,1900,800,1900,무료,무료,0,250,5,0,0,0,37.65371816,127.0521345
방학동 월드상가 앞 주차장(구),도봉구 방학동 717-0 ,노상 주차장,시간제 주차장,,1,유료,900,1800,900,1800,900,1800,무료,무료,0,250,5,0,0,0,37.66825212,127.0464728
남부여성발전센터(시),금천구 시흥동 139-2,노외 주차장,시간제 주차장,02-2648-8292,129,유료,700,2400,700,2400,700,2400,무료,무료,100000,150,5,150,5,0,37.46326988,126.9060565
장안공원지하주차장(구),동대문구 장안동 300-0,노외 주차장,시간제 + 거주자 주차장,,163,유료,900,1900,900,1900,900,1900,무료,무료,0,1000,60,0,0,10000,37.57739367,127.0713961
신방화역환승주차장(시),강서구 마곡동 731-103,노외 주차장,시간제 주차장,02-3405-4581,200,유료,0,2400,0,2400,0,2400,무료,무료,65000,100,5,100,5,0,37.56685475,126.8176835
송림기사식당길(B) 공영주차장(구),광진구 자양동 581-3,노상 주차장,시간제 주차장,02-2049-4540,8,유료,900,1900,900,1500,0,0,무료,유료,0,200,5,200,5,0,37.53151711,127.0750653
진흥로(시),은평구 역촌동 41-8,노상 주차장,시간제 주차장,031-903-3345,18,유료,900,1800,0,0,0,0,유료,유료,0,150,5,150,5,0,37.60352348,126.9212791
봉천복개3(시),관악구 신림동 1467-3,노상 주차장,시간제 주차장,031-903-3345,67,유료,900,1900,900,1500,0,0,무료,유료,0,250,5,250,5,0,37.48745265,126.9318469
고분다리 전통시장 공영주차장(구),강동구 천호동 280-9,노외 주차장,시간제 주차장,02-478-6147,26,유료,0,2400,0,2400,0,2400,무료,무료,85000,150,5,150,5,0,37.54304932,127.1322236
도봉로15길(시),강북구 미아동 458-7,노상 주차장,시간제 주차장,02-2648-8292,21,유료,900,1800,0,0,0,0,유료,유료,0,150,5,150,5,0,37.61656975,127.0285204
원효대교남단(시),영등포구 여의도동 5-0,노상 주차장,시간제 주차장,031-903-3345,23,유료,900,1900,900,1500,0,0,무료,유료,0,250,5,250,5,0,37.52232342,126.9367306
청계8가(북)(시),동대문구 신설동 109-2,노상 주차장,시간제 주차장,02-2272-8821,37,유료,900,1900,900,1500,0,0,무료,유료,0,500,5,650,5,0,37.57063582,127.0282482
청계8가(남)(시),성동구 상왕십리동 291-11,노상 주차장,시간제 주차장,02-2272-8821,72,유료,900,1900,900,1500,0,0,무료,유료,0,500,5,650,5,0,37.56949519,127.0311603
월계역(시),노원구 월계동 589-3,노외 주차장,시간제 주차장,,40,유료,900,1900,900,1500,0,0,무료,유료,50000,100,5,100,5,0,37.634598,127.059314
가양라이품주차장(시),강서구 가양동 1457-1,노외 주차장,시간제 주차장,02-2290-6144,39,유료,0,2400,0,2400,0,2400,무료,무료,0,100,5,100,5,0,37.57155732,126.8416529
신영시장 공동주차장(구),양천구 신월동 114-16,노외 주차장,시간제 주차장,,23,유료,900,1900,900,1900,900,1900,무료,무료,50000,150,5,150,5,9000,37.53302124,126.8362542
마른내로(시),중구 오장동 69-3 중구 오장동 69-3,노상 주차장,시간제 주차장,02)2273-0006,17,유료,900,1800,0,0,0,0,유료,유료,0,500,5,500,5,0,37.56448992,126.9993067
관악신사시장 공영주차장(구),관악구 신림동 494-37,노외 주차장,시간제 + 거주자 주차장,02-2081-2670,13,유료,1000,2000,1000,2000,1000,2000,무료,무료,0,150,5,150,5,0,37.48671865,126.9172816
중곡초교(구),중랑구 면목동 380-0,노외 주차장,시간제 주차장,,140,유료,0,2400,0,2400,0,2400,무료,무료,50000,100,5,100,5,0,37.57427209,127.0837763
라온드베뉴(구),중랑구 망우동 207-2,노외 주차장,시간제 + 거주자 주차장,,200,유료,0,2400,0,2400,0,2400,무료,무료,0,100,5,100,5,0,37.60007938,127.1043541
중계4동 임시공영주차장(구),노원구 중계동 606-2,노외 주차장,시간제 주차장,,42,유료,1000,1900,0,0,0,0,유료,유료,100000,150,5,150,5,8100,37.65859344,127.0735567
장위전통시장 공영주차장(구),성북구 장위동 68-130,노외 주차장,시간제 주차장,02-6925-0023,20,유료,0,2400,0,2400,0,2400,무료,무료,120000,150,5,150,5,10000,37.61025825,127.0498604
반포4동 주민센터(구),서초구 반포동 74-7,노외 주차장,시간제 + 거주자 주차장,,51,유료,0,2400,0,2400,0,2400,무료,무료,120000,300,10,300,10,0,37.497486,127.0003389
양재2동주민센터 공영주차장(구),서초구 양재동 323-1,노외 주차장,시간제 주차장,,31,유료,700,2100,700,2100,700,2100,무료,무료,120000,300,10,300,10,0,37.47065988,127.0412941
영등포구청환승주차장(구),영등포구 당산동3가 370-4,노외 주차장,시간제 주차장,02-2650-1435,66,유료,600,2200,600,2200,600,2200,무료,무료,84000,100,5,100,5,0,37.52462558,126.8956473
정릉천변 공영주차장(구),동대문구 제기동 1159-0 ,노상 주차장,시간제 주차장,011-9953-6949,64,유료,900,1900,900,1500,0,0,무료,유료,120000,500,10,500,10,36000,37.58351342,127.0360478
동서시장 과일채소부 공영주차장(구),동대문구 제기동 849-0,노상 주차장,시간제 주차장,02-962-1650,94,유료,900,1900,900,1500,0,0,무료,유료,0,300,10,300,10,36000,37.58095279,127.0405944
동서시장 식품 공영주차장(구),동대문구 제기동 854-1,노상 주차장,시간제 주차장,,65,유료,900,1900,900,1500,0,0,무료,유료,0,300,10,300,10,36000,37.58266955,127.0405519
장안보성연립노상주차장(구),동대문구 장안동 427-4 ,노상 주차장,시간제 주차장,010-2677-4584,12,유료,900,1900,900,1500,0,0,무료,유료,120000,500,10,500,10,36000,37.56588168,127.0660856
동대문소방서노상(구),동대문구 장안동 434-0,노상 주차장,시간제 주차장,02-456-2591,9,유료,900,1900,900,1500,0,0,무료,유료,120000,500,10,500,10,36000,37.564041,127.0672118
이경시장 공영주차장(구),동대문구 이문동 86-52 ,노상 주차장,시간제 주차장,010-2214-4934,27,유료,900,1900,900,1500,0,0,무료,유료,120000,500,10,500,10,36000,37.59599731,127.0654817
신답고가 주변(구),동대문구 답십리동 530-6,노상 주차장,시간제 주차장,010-5278-4125,22,유료,900,1900,900,1500,0,0,무료,유료,120000,500,10,500,10,36000,37.57023162,127.050032
청계천 주변(구),동대문구 신설동 94-4,노상 주차장,시간제 주차장,,23,유료,900,1900,900,1500,0,0,무료,유료,120000,500,10,0,0,0,37.57315559,127.0277657
청계천 주변(구),동대문구 용두동 255-41,노상 주차장,시간제 주차장,,29,유료,900,1900,900,1500,0,0,무료,유료,120000,500,10,0,0,0,37.57210342,127.028057
신일피혁주변(구),동대문구 장안동 480-9,노상 주차장,시간제 주차장,,17,유료,900,1900,900,1500,0,0,무료,유료,120000,500,10,0,0,0,37.56533942,127.0677375
회기역주변 공영주차장(구),동대문구 휘경동 255-3 ,노상 주차장,시간제 주차장,02-2247-9664~6,85,유료,900,1900,900,1500,0,0,무료,유료,120000,500,10,500,10,36000,37.59035154,127.0609514
정화여상 노상(구),동대문구 제기동 855-0,노상 주차장,시간제 주차장,,74,유료,900,1900,900,1500,0,0,무료,유료,120000,500,10,500,10,36000,37.5855024,127.0405032
서서울(구),양천구 신월동 267-8,노외 주차장,시간제 + 거주자 주차장,02-2620-1386,70,유료,0,2400,0,2400,0,2400,무료,무료,50000,50,5,50,5,9000,37.52814337,126.8319454
석계역 앞(구),노원구 월계동 60-1,노외 주차장,시간제 주차장,02-942-8882,29,유료,1000,1900,1100,1800,0,0,무료,유료,50000,100,5,100,5,0,37.61572968,127.0651839
상계역 서측 주택가 공영주차장(구),노원구 상계동 169-409,노외 주차장,시간제 주차장,,10,유료,1000,1900,1000,1800,0,0,무료,유료,0,150,5,150,5,0,37.6600464,127.0710559
서울약령시공영주차장(구),동대문구 제기동 1082-0,노외 주차장,시간제 주차장,070-5088-2390,199,유료,0,2400,0,2400,0,2400,무료,무료,170000,500,10,500,10,20000,37.58066496,127.0376321
방배1동 공영주차장(구),서초구 방배동 328-1,노외 주차장,시간제 주차장,,123,유료,0,2400,0,2400,0,2400,무료,무료,120000,300,10,300,10,0,37.48549233,126.992476
양재근린공원 공영주차장(구),서초구 양재동 311,노외 주차장,시간제 주차장,010-6320-5855,102,유료,0,2400,0,2400,0,2400,무료,무료,120000,300,10,300,10,0,37.47158991,127.0424135
방배역 노상 공영주차장(구),서초구 방배동 91-16 ,노상 주차장,시간제 주차장,010-3378-9822,10,유료,900,2100,900,2100,900,2100,무료,무료,0,500,10,500,10,0,37.48266573,126.9967166
한강로2가동(구),용산구 한강로2가 412-0,노상 주차장,시간제 주차장,,12,유료,900,1900,900,1500,0,0,무료,유료,0,250,5,0,0,0,37.52947024,126.9695842
밤고개로21길 공영주차장(구),강남구 율현동 77-5,노외 주차장,시간제 주차장,02-2176-0907,124,유료,0,2400,0,2400,0,2400,무료,무료,70000,100,5,100,5,0,37.47354638,127.1144114
이태원1동공영(구),용산구 이태원동 22-36,노상 주차장,시간제 주차장,,11,유료,900,1900,900,1500,0,0,무료,유료,0,250,5,0,0,0,37.53084609,126.9958322
천호3동 제2공영주차장(시),강동구 천호동 174-1,노외 주차장,시간제 주차장,02-478-6147,199,유료,0,2400,0,2400,0,2400,무료,무료,80000,150,5,150,5,0,37.54075002,127.1340836
세종로주차장(시),종로구 세종로 80-1,노외 주차장,시간제 주차장,02-2290-6566,1270,유료,0,2400,0,2400,0,2400,무료,무료,180000,300,5,300,5,0,37.57340269,126.9758843
서인사마당공영(구),종로구 견지동 85-18,노외 주차장,시간제 주차장,02-2236-0052,45,유료,800,2200,800,2200,800,2200,무료,무료,250000,400,5,400,5,0,37.57352191,126.9838041
종묘주차장(시),종로구 훈정동 2-0,노외 주차장,시간제 주차장,02-2290-6166,1323,유료,0,2400,0,2400,0,2400,무료,무료,180000,400,5,400,5,0,37.57150398,126.9949689
명광교회공영주차장(구),종로구 명륜3가 12-0,노외 주차장,시간제 주차장,02-2236-0052,8,유료,0,2400,0,2400,0,2400,무료,무료,180000,250,5,250,5,0,37.58674057,126.9964757
창신1동공영주차장(창일공영)(구),종로구 창신동 82-0,노외 주차장,시간제 + 거주자 주차장,02-2236-0052,89,유료,900,1800,900,1800,900,1800,무료,무료,0,2000,240,0,0,5000,37.57488143,127.0150838
동묘공영주차장(구),종로구 숭인동 227-8,노외 주차장,시간제 + 거주자 주차장,02-2236-0052,27,유료,900,1800,0,0,0,0,무료,무료,0,400,5,400,5,0,37.57328256,127.0189327
다동공원 제4부지 공영주차장(구),중구 다동 39-3,노외 주차장,시간제 + 거주자 주차장,02-756-7008,15,유료,900,2300,900,2300,0,0,무료,무료,350000,400,5,400,5,0,37.56823533,126.9802511
훈련원공원주차장(시),중구 을지로5가 40-3,노외 주차장,시간제 주차장,02-2290-6382,878,유료,0,2400,0,2400,0,2400,무료,무료,180000,400,5,0,0,0,37.56740014,127.0035206
묵정공원지하 공영주차장(구),중구 충무로5가 21-0,노외 주차장,시간제 + 거주자 주차장,02-2280-8370,502,유료,0,2400,0,2400,0,2400,무료,무료,180000,400,5,400,5,0,37.56379141,126.9997956
초동 공영주차장(구),중구 초동 64-11,노외 주차장,시간제 + 거주자 주차장,02-2261-8360,73,유료,700,2300,1000,1900,800,1700,무료,무료,200000,400,5,400,5,0,37.56416856,126.9921356
동화동공영주차장(구),중구 신당동 52-7,노외 주차장,시간제 + 거주자 주차장,02-2256-1517,129,유료,1100,2000,1100,1600,0,0,무료,무료,140000,150,5,150,5,0,37.56137409,127.0190004
신당역공영주차장(구),중구 신당동 140-29,노외 주차장,시간제 + 거주자 주차장,02-2280-8360,26,유료,700,2300,900,1800,900,1800,무료,무료,240000,250,5,250,5,0,37.56535145,127.0206965
성곽공영주차장(구),중구 신당동 432-2026,노외 주차장,시간제 + 거주자 주차장,02-2252-3369,46,유료,0,2400,0,2400,0,2400,무료,무료,140000,150,5,150,5,0,37.55054127,127.0048432
청구공영주차장(구),중구 신당동 330-17,노외 주차장,시간제 + 거주자 주차장,02-2280-8360,51,유료,0,2400,0,2400,0,2400,무료,무료,240000,250,5,250,5,0,37.55897429,127.0134054
충현공영주차장(구),중구 신당동 432-462,노외 주차장,시간제 + 거주자 주차장,02-2231-1444,111,유료,0,2400,0,2400,0,2400,무료,무료,140000,150,5,150,5,0,37.55220869,127.0056811
다산동 공영주차장(구),중구 신당동 432-1584,노외 주차장,시간제 + 거주자 주차장,02-2238-3379,86,유료,1100,2000,1100,1600,0,0,무료,무료,140000,150,5,150,5,0,37.55454233,127.0085243
버티 공영주차장(구),중구 신당동 432-1693,노외 주차장,시간제 + 거주자 주차장,02-2234-9747,92,유료,0,2400,0,2400,0,2400,무료,무료,140000,150,5,150,5,0,37.54909105,127.0059107
동산공영주차장(구),중구 신당동 333-260,노외 주차장,시간제 + 거주자 주차장,02-2280-8360,83,유료,0,2400,0,2400,0,2400,무료,무료,140000,150,5,150,5,0,37.55634366,127.0159761
서소문 삼성생명뒤 공영주차장(구),중구 서소문동 122-0,노외 주차장,시간제 주차장,02-310-9588,50,유료,700,2300,900,1800,900,1800,무료,무료,350000,400,5,400,5,0,37.56174725,126.9743227
문화공영주차장(구),중구 신당동 425-1,노외 주차장,시간제 + 거주자 주차장,02-2252-5314,31,유료,700,2300,900,1800,900,1800,무료,무료,140000,150,5,150,5,0,37.55654107,127.0109609
신당사거리공영주차장(구),중구 신당동 110-1,노외 주차장,시간제 + 거주자 주차장,02-2280-8360,45,유료,700,2300,900,1800,900,1800,무료,무료,240000,250,5,250,5,0,37.56512357,127.0170201
약수동공영주차장(구),중구 신당동 349-234,노외 주차장,시간제 + 거주자 주차장,02-2280-8360,90,유료,0,2400,0,2400,0,2400,무료,무료,140000,150,5,150,5,0,37.55222214,127.0133576
장충공영주차장(구),중구 장충동2가 193-39,노외 주차장,시간제 + 거주자 주차장,02-2280-8360,106,유료,0,2400,0,2400,0,2400,무료,무료,140000,150,5,150,5,0,37.56001,127.0013165
손기정체육공원 공영주차장(구),중구 만리동2가 6-1,노외 주차장,시간제 + 거주자 주차장,02-364-7003,162,유료,0,2400,0,2400,0,2400,무료,무료,140000,150,5,150,5,0,37.55559696,126.964973
서계동공영주차장(구),용산구 서계동 276-5,노외 주차장,시간제 주차장,,36,유료,0,2400,0,2400,0,2400,무료,무료,140000,150,5,150,5,0,37.55163663,126.9643958
신창공영주차장(구),용산구 신창동 53-1,노외 주차장,시간제 주차장,02-711-1924,110,유료,0,2400,0,2400,0,2400,무료,무료,140000,150,5,150,5,0,37.5353106,126.9552132
용문동주차장(구),용산구 도원동 4-5,노외 주차장,시간제 주차장,02-749-5314,41,유료,0,2400,0,2400,0,2400,무료,무료,98000,150,5,150,5,0,37.53894931,126.9575677
용산전자상가3(구),용산구 한강로3가 19-2,노외 주차장,시간제 주차장,02-707-3195,167,유료,800,2200,800,2200,800,2200,무료,무료,130000,250,5,250,5,0,37.53258192,126.9603249
용산전자상가5(구),용산구 한강로3가 2-1,노외 주차장,시간제 주차장,02-707-3164,42,유료,800,2200,800,2200,800,2200,무료,무료,130000,250,5,250,5,0,37.53381412,126.9634154
용산전자상가2(구),용산구 한강로3가 14-1,노외 주차장,시간제 주차장,02-707-3149,196,유료,800,2200,800,2200,800,2200,무료,무료,130000,250,5,250,5,0,37.53266756,126.9630887
용산전자상가1(구),용산구 한강로3가 12-0,노외 주차장,시간제 주차장,02-707-3105,202,유료,800,2200,800,2200,800,2200,무료,무료,130000,250,5,250,5,0,37.53204956,126.96478
한남유수지공영주차장(구),용산구 한남동 522-44,노외 주차장,시간제 주차장,02-749-9631,85,유료,0,2400,0,2400,0,2400,무료,무료,120000,150,5,150,5,0,37.5298673,127.0074007
이태원2동 공영주차장(구),용산구 이태원동 227-9,노외 주차장,시간제 주차장,02-796-3472,112,유료,0,2400,0,2400,0,2400,무료,무료,160000,250,5,250,5,0,37.54036639,126.9926584
한강진역공영주차장(시),용산구 한남동 728-27,노외 주차장,시간제 주차장,02-795-6406,180,유료,0,2400,0,2400,0,2400,무료,무료,120000,250,5,250,5,0,37.53952175,127.0025796
하왕십리(건물)(구),성동구 하왕십리동 955-34,노외 주차장,시간제 주차장,02-2204-7965,101,유료,0,2400,0,2400,0,2400,무료,무료,70000,100,5,100,5,10000,37.56039538,127.0279149
용산주차빌딩(시),용산구 한강로2가 12-9,노외 주차장,시간제 주차장,02-2290-6014,565,유료,0,2400,0,2400,0,2400,무료,무료,120000,250,5,250,5,0,37.53436379,126.9654182
용산2가소월주차장(구),용산구 용산동2가 11-0,노외 주차장,시간제 주차장,02-749-5314,56,유료,0,2400,0,2400,0,2400,무료,무료,140000,150,5,150,5,0,37.54621474,126.9855822
응봉동(건물)(구),성동구 행당동 341-59,노외 주차장,시간제 주차장,02-2298-7596,71,유료,0,2400,0,2400,0,2400,무료,무료,50000,50,5,50,5,5000,37.55334376,127.0307424
도선동(지하)(구),성동구 홍익동 369-0,노외 주차장,시간제 주차장,02-3395-9480,186,유료,0,2400,0,2400,0,2400,무료,무료,70000,100,5,100,5,10000,37.565567,127.0316914
홍익동(건물)(구),성동구 홍익동 252-0,노외 주차장,시간제 주차장,02-3395-9490 ,85,유료,0,2400,0,2400,0,2400,무료,무료,70000,100,5,100,5,10000,37.5656391,127.033905
금호초등학교(건물)(구),성동구 금호동2가 511-0,노외 주차장,시간제 주차장,02-2252-9664,124,유료,0,2400,0,2400,0,2400,무료,무료,70000,100,5,100,5,10000,37.55257521,127.0201586
성수1가1동(건물)(구),성동구 성수동1가 656-260,노외 주차장,시간제 주차장,02-469-3318,96,유료,0,2400,0,2400,0,2400,무료,무료,70000,100,5,100,5,10000,37.53996228,127.0463849
성수2가3동 (건물)(구),성동구 성수동2가 299-19,노외 주차장,시간제 주차장,02-2204-7981,198,유료,0,2400,0,2400,0,2400,무료,무료,70000,100,5,100,5,10000,37.54913662,127.0551983
성수2가1동 (건물)(구),성동구 성수동2가 571-1,노외 주차장,시간제 주차장,02-2204-7981,165,유료,0,2400,0,2400,0,2400,무료,무료,70000,100,5,100,5,10000,37.53716718,127.0561968
강변(건물)(구),성동구 성수동1가 366-1,노외 주차장,시간제 주차장,02-2204-7981,107,유료,0,2400,0,2400,0,2400,무료,무료,70000,100,5,100,5,10000,37.53696583,127.0490425
용답동(건물)(구),성동구 용답동 4-1,노외 주차장,시간제 주차장,02-2248-1430,168,유료,0,2400,0,2400,0,2400,무료,무료,70000,100,5,100,5,10000,37.56458022,127.0543217
자양유수지(구),광진구 자양동 594-0,노외 주차장,시간제 + 거주자 주차장,,287,유료,0,2400,0,2400,0,2400,무료,무료,0,150,5,150,5,0,37.52934117,127.0775816
동서울 노외주차장(구),광진구 구의동 598-1,노외 주차장,시간제 주차장,,25,유료,800,1900,800,1900,0,0,무료,유료,100000,250,5,250,5,30000,37.53352007,127.0913292
구의1동 공영주차장(구),광진구 구의동 243-78,노외 주차장,시간제 + 거주자 주차장,02-453-2038,172,유료,0,2400,0,2400,0,2400,무료,무료,80000,150,5,150,5,0,37.53828214,127.0878917
능동공영주차장(구),광진구 능동 205-0,노외 주차장,시간제 + 거주자 주차장,02-447-9406,77,유료,0,2400,0,2400,0,2400,무료,무료,0,75,5,75,5,0,37.55402858,127.0802703
화양동 공영(구),광진구 화양동 63-2,노외 주차장,시간제 주차장,,44,유료,0,2400,0,2400,0,2400,무료,무료,80000,150,5,150,5,0,37.54530284,127.0712188
자양4동 공영(구),광진구 자양동 5-5,노외 주차장,시간제 주차장,,86,유료,0,2400,0,2400,0,2400,무료,무료,100000,150,5,150,5,0,37.53867795,127.0682434
외대역주차빌딩 공영(구),동대문구 이문동 306-14,노외 주차장,시간제 주차장,,84,유료,0,2400,0,2400,0,2400,무료,무료,170000,500,10,500,10,0,37.59504107,127.0626248
청량리동 노외주차장(구),동대문구 청량리동 51-4,노외 주차장,시간제 + 거주자 주차장,02-2247-9664~6,26,유료,900,1900,900,1900,900,1900,무료,무료,0,1000,60,0,0,10000,37.58404715,127.0490188
장영당길 공영주차장(구3동)(구),동대문구 답십리동 484-7,노외 주차장,시간제 + 거주자 주차장,02-2247-9664~6,193,유료,900,1900,900,1900,900,1900,무료,무료,0,1000,60,0,0,10000,37.56865003,127.0531628
동답 공영주차장(구),동대문구 답십리동 2-283,노외 주차장,시간제 + 거주자 주차장,02-2247-9664~6,67,유료,900,1900,900,1900,900,1900,무료,무료,0,1000,60,0,0,10000,37.56938534,127.0635549
회기동 공영주차장(구),동대문구 회기동 1-1,노외 주차장,시간제 + 거주자 주차장,02-2247-9664~6,100,유료,900,1900,900,1900,900,1900,무료,무료,0,1000,60,0,0,10000,37.59208429,127.0554514
청량리동 공영주차장(구),동대문구 청량리동 435-0,노외 주차장,시간제 + 거주자 주차장,02-2247-9664~6,67,유료,900,1900,900,1900,900,1900,무료,무료,0,1000,60,0,0,10000,37.58544944,127.0445522
늘봄주차장(구),중랑구 면목동 22-12,노외 주차장,시간제 주차장,02-437-1987,72,유료,0,2400,0,2400,0,2400,무료,무료,50000,100,5,100,5,0,37.58985533,127.0964356
용마폭포공원공영주차장(구),중랑구 면목동 1-4,노외 주차장,시간제 + 거주자 주차장,,119,유료,900,2100,900,2100,0,0,무료,무료,70000,100,5,100,5,0,37.57337582,127.0911424
까치공원공영주차장(구),중랑구 면목동 570-0,노외 주차장,시간제 주차장,080-490-3894,90,유료,0,2400,0,2400,0,2400,무료,무료,50000,100,5,100,5,0,37.58344393,127.0873474
은행나무공영주차장(구),중랑구 면목동 107-5,노외 주차장,시간제 주차장,,97,유료,0,2400,0,2400,0,2400,무료,무료,50000,100,5,100,5,0,37.58701918,127.0914957
면목5동공영주차장(구),중랑구 면목동 162-22,노외 주차장,시간제 주차장,02-432-4174,67,유료,0,2400,0,2400,0,2400,무료,무료,50000,100,5,100,5,0,37.58296438,127.080075
봉화산역(남)(시),중랑구 신내동 647-0,노외 주차장,시간제 주차장,02-2648-8292,85,유료,900,2200,900,2200,900,2200,무료,무료,30000,50,5,50,5,0,37.61642995,127.0919719
동원시장공영주차장(구),중랑구 면목동 74-33,노외 주차장,시간제 주차장,,26,유료,0,2400,0,2400,0,2400,무료,무료,50000,100,5,100,5,0,37.58987969,127.0931487
상봉2동공영주차장(구),중랑구 상봉동 110-38,노외 주차장,시간제 주차장,02-1577-3325,83,유료,0,2400,0,2400,0,2400,무료,무료,50000,100,5,100,5,0,37.59305102,127.084216
중화1동공영주차장(구),중랑구 중화동 29-2,노외 주차장,시간제 주차장,02-438-7489,130,유료,0,2400,0,2400,0,2400,무료,무료,50000,100,5,100,5,0,37.60270927,127.0816571
시네마빌딩공영주차장(구),성북구 돈암동 538-59,노외 주차장,시간제 주차장,070-8644-8323,100,유료,0,2400,0,2400,0,2400,무료,무료,86000,150,5,150,5,10000,37.59916723,127.014741
벤처빌딩(구),성북구 장위동 65-154,노외 주차장,시간제 주차장,,56,유료,0,2400,0,2400,0,2400,무료,무료,80000,150,5,150,5,10000,37.60939012,127.0532463
마을공원(구),성북구 장위동 77-79,노외 주차장,시간제 주차장,,98,유료,0,2400,0,2400,0,2400,무료,무료,96000,150,5,150,5,10000,37.61717024,127.0533551
광운대입구주차장(시),성북구 장위동 135-4,노외 주차장,시간제 주차장,,18,유료,900,1900,900,1500,0,0,무료,유료,60000,600,30,200,10,12000,37.61703576,127.0562091
장위3동공영주차장(한천로)(구),성북구 장위동 158-1,노외 주차장,시간제 + 거주자 주차장,,53,유료,900,1800,0,0,0,0,무료,무료,0,300,10,0,0,0,37.62091287,127.0525808
대지시장길 공영주차장(구),강북구 미아동 703-8,노외 주차장,시간제 주차장,02-944-3035,47,유료,0,2400,0,2400,0,2400,무료,무료,100000,200,5,200,5,10000,37.62016376,127.0203164
동방고개(구),성북구 장위동 230-110,노외 주차장,시간제 주차장,,66,유료,0,2400,0,2400,0,2400,무료,무료,80000,150,5,150,5,10000,37.61469255,127.0410032
송중동 공영주차장(구),강북구 미아동 48-1,노외 주차장,시간제 주차장,02-944-3038,53,유료,0,2400,0,2400,0,2400,무료,무료,100000,200,5,200,5,10000,37.61165492,127.0336362
시범 공영주차장(구),강북구 수유동 190-11,노외 주차장,시간제 주차장,02-944-3029,45,유료,800,2200,800,2200,900,1800,무료,무료,0,250,5,250,5,15000,37.64005648,127.0259585
오패산공영주차장(구),강북구 미아동 133-100,노외 주차장,시간제 주차장,02-944-3041,76,유료,0,2400,0,2400,0,2400,무료,무료,60000,150,5,150,5,10000,37.6221541,127.0311473
냉천길 공영주차장(구),강북구 미아동 756-1,노외 주차장,시간제 주차장,02-944-3040,103,유료,0,2400,0,2400,0,2400,무료,무료,100000,200,5,200,5,10000,37.62400561,127.0195385
인수동 공영주차장(구),강북구 수유동 126-0,노외 주차장,시간제 주차장,02-944-3045,89,유료,0,2400,0,2400,0,2400,무료,무료,100000,200,5,200,5,10000,37.63608367,127.0184499
도봉2동 법조타운 공영주차장(구),도봉구 도봉동 624-105,노외 주차장,시간제 + 거주자 주차장,02-901-5100,164,유료,900,1800,900,1800,900,1800,무료,무료,0,100,5,100,5,0,37.67364352,127.0464697
교통광장 공영주차장(구),강북구 우이동 265-0,노외 주차장,시간제 주차장,02-944-3027,56,유료,0,2400,0,2400,0,2400,무료,무료,100000,200,5,200,5,10000,37.66206284,127.0084832
창2동4공영주차장(구),도봉구 창동 582-22,노외 주차장,시간제 + 거주자 주차장,02-2091-4215,82,유료,900,1800,900,1800,900,1800,무료,무료,0,100,5,100,5,0,37.64124421,127.0362985
수락산역 환승주차장(시),노원구 상계동 1268-0,노외 주차장,시간제 주차장,02-2290-6407,158,유료,0,2400,0,2400,0,2400,무료,무료,65000,100,5,100,5,0,37.67902582,127.0559142
수색동공영주차장(구),은평구 수색동 78-2,노외 주차장,시간제 주차장,02-372-7556,111,유료,0,2400,0,2400,0,2400,무료,무료,70000,100,5,100,5,0,37.58049896,126.8989315
창동역(동)(시),도봉구 창동 1-9,노외 주차장,시간제 주차장,02-2290-6387,455,유료,0,2400,0,2400,0,2400,무료,무료,65000,100,5,100,5,28800,37.6543748,127.0490621
창1동 1공영주차장(구),도봉구 창동 657-37,노외 주차장,시간제 + 거주자 주차장,02-2091-4215,42,유료,900,1800,900,1800,900,1800,무료,무료,0,100,5,100,5,0,37.64713168,127.0371994
창3동 1공영주차장(구),도봉구 창동 504-21,노외 주차장,시간제 + 거주자 주차장,02-2091-4215,80,유료,900,1800,900,1800,900,1800,무료,무료,0,100,5,100,5,0,37.6331568,127.041342
새장골공영주차장(구),은평구 불광동 480-352,노외 주차장,시간제 주차장,02-355-5947,40,유료,0,2400,0,2400,0,2400,무료,무료,70000,100,5,100,5,0,37.62446275,126.9235464
건영백화점앞(구),노원구 중계동 507-0,노외 주차장,시간제 주차장,02-949-7705,137,유료,1000,2000,1000,1800,1100,1800,무료,무료,180000,250,5,250,5,16500,37.63958481,127.0651987
등나무근린공원(구),노원구 중계동 508-1,노외 주차장,시간제 주차장,02-949-7706,151,유료,1030,2100,1030,2200,0,0,무료,유료,180000,250,5,250,5,16500,37.64027756,127.0676992
응암3동공동주차장(구),은평구 응암동 580-4,노외 주차장,시간제 주차장,02-350-5188,160,유료,0,2400,0,2400,0,2400,무료,무료,70000,100,5,100,5,0,37.59345156,126.9153949
충현동 제1거주자우선주차장(구),서대문구 충정로2가 78-13,노외 주차장,시간제 + 거주자 주차장,02-360-8542~3,63,유료,1000,1900,1000,1900,1000,1900,무료,무료,0,50,5,50,5,0,37.56518547,126.9646069
갈현1동공영주차장(구),은평구 갈현동 9-112,노외 주차장,시간제 주차장,02-357-5947,61,유료,0,2400,0,2400,0,2400,무료,무료,70000,100,5,100,5,0,37.62648828,126.915338
공덕1-1 공영주차장(구),마포구 공덕동 11-243,노외 주차장,시간제 + 거주자 주차장,02-300-5041,81,유료,900,1800,0,0,0,0,무료,무료,0,1000,60,500,30,0,37.54738044,126.9609133
마포유수지(시),마포구 마포동 36-1,노외 주차장,시간제 + 버스전용 주차장,02-711-8851,508,유료,0,2400,0,2400,0,2400,무료,무료,130000,250,5,250,5,0,37.53890027,126.9426686
미근동노외(시),서대문구 미근동 267-3,노외 주차장,시간제 주차장,02)313-6449,27,유료,900,1900,900,1500,0,0,무료,유료,0,250,5,250,5,0,37.56225368,126.9683494
상암1 공영주차장(구),마포구 상암동 1621-0,노외 주차장,시간제 주차장,02-373-5401,141,유료,0,2400,0,2400,0,2400,무료,무료,100000,200,5,200,5,0,37.57727445,126.8972079
당곡주차장(구),양천구 신월동 482-11,노외 주차장,시간제 주차장,02-2644-1386,45,유료,0,2400,0,2400,0,2400,무료,무료,50000,50,5,50,5,0,37.52437054,126.8450986
누리주차장(구),양천구 신정동 323-13,노외 주차장,시간제 주차장,032-872-7278,20,유료,900,1900,0,0,0,0,유료,유료,70000,150,5,150,5,0,37.51540127,126.8627138
밝은빛주차장(구),양천구 신정동 323-18,노외 주차장,시간제 주차장,010-3904-1383,23,유료,900,1900,900,1900,0,0,무료,유료,100000,150,5,150,5,0,37.51619431,126.8613528
문화회관서측(구),양천구 신정동 323-25,노외 주차장,시간제 주차장,,23,유료,900,1900,900,1900,0,0,무료,유료,70000,150,5,150,5,0,37.51635934,126.8625557
하늘주차장(구),양천구 신정동 323-33,노외 주차장,시간제 주차장,,30,유료,900,1900,900,1900,0,0,무료,유료,100000,150,5,150,5,0,37.51523307,126.8615113
목동공영주차장(구),양천구 목동 915-0,노외 주차장,시간제 주차장,02-2644-1384,1022,유료,700,2200,800,1900,800,1900,무료,무료,70000,150,5,150,5,10000,37.52769446,126.8780567
망원1-1 공영주차장(구),마포구 망원동 418-39,노외 주차장,시간제 + 거주자 주차장,02-300-5041,68,유료,900,1800,0,0,0,0,무료,무료,0,1000,60,500,30,0,37.55602414,126.9000466
능골주차장(구),양천구 신월동 152-38,노외 주차장,시간제 주차장,02-2699-0742,61,유료,0,2400,0,2400,0,2400,무료,무료,50000,50,5,50,5,0,37.533186,126.8245522
어울림주차장(구),양천구 신정동 318-2,노외 주차장,시간제 주차장,,32,유료,900,1900,900,1900,0,0,무료,유료,100000,150,5,150,5,0,37.52216678,126.869297
염리 공영주차장(구),마포구 염리동 174-3,노외 주차장,시간제 주차장,02-300-5052,135,유료,0,2400,0,2400,0,2400,무료,무료,170000,250,5,250,5,0,37.54199792,126.9452373
문화회관동측(구),양천구 신정동 322-5,노외 주차장,시간제 주차장,02-2653-1384,80,유료,900,1900,900,1900,0,0,무료,유료,70000,150,5,150,5,9000,37.51706546,126.8638425
목2동 월촌(구),양천구 목동 525-0,노외 주차장,시간제 주차장,02-2643-2008,79,유료,0,2400,0,2400,0,2400,무료,무료,50000,50,5,50,5,0,37.54595116,126.874623
법마을공영주차장(구),양천구 신정동 1018-3,노외 주차장,시간제 주차장,010-9952-2436,18,유료,0,2400,0,2400,0,2400,무료,무료,50000,50,5,50,5,0,37.52165189,126.8605661
마을마당주차장(구),양천구 신월동 129-6,노외 주차장,시간제 주차장,02-2699-4027,114,유료,0,2400,0,2400,0,2400,무료,무료,50000,50,5,50,5,0,37.53065845,126.8332183
성산2-1 공영주차장(구),마포구 성산동 199-0,노외 주차장,시간제 + 거주자 주차장,02-300-5041,59,유료,900,1800,0,0,0,0,무료,무료,0,1000,60,500,30,0,37.56479289,126.9067217
한두공영주차장(구),양천구 목동 610-5,노외 주차장,시간제 주차장,02-2652-2637,39,유료,0,2400,0,2400,0,2400,무료,무료,50000,50,5,50,5,0,37.54876937,126.8662288
다락골주차장(구),양천구 신정동 1158-1,노외 주차장,시간제 주차장,070-7393-1131,102,유료,0,2400,0,2400,0,2400,무료,무료,50000,50,5,50,5,0,37.51614281,126.8496672
우리공영주차장(구),양천구 목동 907-8,노외 주차장,시간제 주차장,,40,유료,900,1900,900,1900,0,0,무료,유료,100000,150,5,150,5,0,37.53665073,126.8791772
웃우물 주차장(시),양천구 신정동 943-25,노외 주차장,시간제 주차장,02)2290-6311,79,유료,0,2400,0,2400,0,2400,무료,무료,100000,150,5,150,5,0,37.52379759,126.8514175
광장주차장(구),양천구 목동 907-19,노외 주차장,시간제 주차장,070-7119-2792,42,유료,900,1900,900,1900,0,0,무료,유료,100000,150,5,150,5,0,37.53545496,126.8793819
목동체비지(시),양천구 목동 908-26,노외 주차장,시간제 주차장,02-2642-6209,50,유료,800,2100,800,2100,800,2100,무료,무료,180000,250,5,250,5,0,37.53679353,126.8806468
달마을주차장(구),양천구 목동 532-18,노외 주차장,시간제 주차장,010-5318-0724,30,유료,0,2400,0,2400,0,2400,무료,무료,50000,50,5,50,5,0,37.54437302,126.8716376
망원2-1 공영주차장(구),마포구 망원동 428-5,노외 주차장,시간제 + 거주자 주차장,02-300-5041,62,유료,900,1800,0,0,0,0,무료,무료,0,1000,60,500,30,0,37.55778757,126.9015162
신정7동 한사랑교회 앞(구),양천구 신정동 324-11,노외 주차장,시간제 주차장,,125,유료,900,1900,900,1900,0,0,무료,유료,0,150,5,150,5,9000,37.51483512,126.8601753
한서 공영주차장(구),마포구 염리동 24-170,노외 주차장,시간제 + 거주자 주차장,02-300-5041,113,유료,900,1800,0,0,0,0,무료,무료,0,1000,60,500,30,0,37.552871,126.9493333
목3동 해운주차장(구),양천구 목동 711-6,노외 주차장,시간제 주차장,02-2061-788,64,유료,0,2400,0,0,0,0,유료,유료,50000,50,5,50,5,0,37.54193427,126.8651302
등촌 2-1주택가공영주차장(구),강서구 등촌동 531-5,노외 주차장,시간제 주차장,02-2645-1578,91,유료,900,1900,0,0,0,0,유료,유료,50000,50,5,50,5,2000,37.54982067,126.8613437
화곡7-1 주택가공영주차장(구),강서구 화곡동 370-63,노외 주차장,시간제 주차장,02-2699-8671,86,유료,1000,1900,0,0,0,0,유료,유료,50000,50,5,50,5,2000,37.53601946,126.8391666
곰달래주차장(구),양천구 신월동 226-9,노외 주차장,시간제 주차장,02-2699-4029,107,유료,0,2400,0,2400,0,2400,무료,무료,50000,50,5,50,5,0,37.52954694,126.8360691
한울주차장(구),양천구 신월동 957-10,노외 주차장,시간제 주차장,,21,유료,0,2400,0,2400,0,2400,무료,무료,50000,50,5,50,5,0,37.51995355,126.8317642
방화역(서)(시),강서구 방화동 829-1,노외 주차장,시간제 주차장,02-2642-6209,66,유료,900,2200,900,2200,800,2100,무료,무료,65000,100,5,100,5,0,37.57757395,126.8121746
방화역(동)(시),강서구 방화동 830-4,노외 주차장,시간제 주차장,02-2642-6209,66,유료,800,2100,800,2100,800,2100,무료,무료,65000,100,5,100,5,0,37.57730116,126.8133148
개화산역환승(시),강서구 방화동 845-0,노외 주차장,시간제 주차장,02-2662-6415,324,유료,0,2400,0,2400,0,2400,무료,무료,65000,100,5,100,5,0,37.57224302,126.8051898
신우주차장(구),양천구 신월동 166-23,노외 주차장,시간제 주차장,02-2699-7810,107,유료,0,2400,0,2400,0,2400,무료,무료,50000,50,5,50,5,0,37.53444512,126.8285528
화곡5-1 주택가공영주차장(구),강서구 화곡동 1030-33,노외 주차장,시간제 주차장,02-2604-8688,27,유료,900,1800,0,0,0,0,유료,유료,50000,50,5,50,5,2000,37.54391908,126.8397247
공항동(송정역)(시),강서구 공항동 42-8,노외 주차장,시간제 주차장,,11,유료,0,2400,0,2400,0,2400,무료,무료,100000,150,5,150,5,0,37.56034439,126.8106649
가양3동 노외주차장(시),강서구 가양동 1488-12,노외 주차장,시간제 주차장,02-2642-6209,54,유료,900,1900,900,1500,0,0,무료,유료,100000,150,5,150,5,0,37.56033753,126.8597755
화곡2-1 주택가공영주차장(구),강서구 화곡동 167-10,노외 주차장,시간제 주차장,02-2607-1419,60,유료,900,1900,0,0,0,0,유료,유료,50000,50,5,50,5,2000,37.53604907,126.8524573
화곡6-1주택가공영주차장(구),강서구 화곡동 1103-6,노외 주차장,시간제 주차장,02-2607-9113,300,유료,0,2400,0,2400,0,0,무료,유료,70000,100,5,100,5,5000,37.55298682,126.8484342
화곡5-2 주택가공영주차장(구),강서구 화곡동 1056-2,노외 주차장,시간제 주차장,02-2604-8688,25,유료,900,1800,0,0,0,0,유료,유료,50000,50,5,50,5,2000,37.54423955,126.8407541
화곡본-2 주택가공영주차장(구),강서구 화곡동 46-127,노외 주차장,시간제 주차장,02-2607-1570,100,유료,1000,1900,0,0,0,0,유료,유료,50000,50,5,50,5,2000,37.54432744,126.8484532
화곡본-1 주택가공영주차장(구),강서구 화곡동 56-127,노외 주차장,시간제 주차장,02-2065-8751,99,유료,900,1900,0,0,0,0,유료,유료,50000,50,5,50,5,2000,37.53975106,126.8497943
화곡8-2 주택가공영주차장(구),강서구 화곡동 410-4,노외 주차장,시간제 주차장,02-2607-1571,84,유료,900,1900,0,0,0,0,유료,유료,50000,50,5,50,5,2000,37.53771095,126.8503608
영보빌딩(시),강서구 가양동 1480-10,노외 주차장,시간제 주차장,02-2642-6209,79,유료,800,2100,800,2100,800,2100,무료,무료,100000,150,5,150,5,0,37.56332959,126.8530818
구름다리주차장(구),양천구 신월동 915-4,노외 주차장,시간제 주차장,,52,유료,0,2400,0,2400,0,2400,무료,무료,50000,50,5,50,5,0,37.52421803,126.8328852
구로5동마을공동주차장(구),구로구 구로동 549-73,노외 주차장,시간제 주차장,02-839-4875,81,유료,900,1800,0,0,0,0,유료,유료,65000,100,5,100,5,0,37.50085864,126.8860481
구로3동마을주차장(구),구로구 구로동 797-1,노외 주차장,시간제 주차장,,20,유료,1000,1800,0,0,0,0,유료,유료,50000,50,5,50,5,0,37.48502453,126.8884429
효봉공영주차장(구),금천구 시흥동 3-129,노외 주차장,시간제 + 거주자 주차장,,66,유료,830,1900,830,1900,830,1900,무료,무료,0,65,5,65,5,0,37.46077721,126.9109648
구로리공원지하주차장(구),구로구 구로동 139-82,노외 주차장,시간제 주차장,,203,유료,0,2400,0,2400,0,2400,무료,무료,105000,150,5,150,5,0,37.4908967,126.8916049
고척1동마을공동주차장(구),구로구 고척동 52-54,노외 주차장,시간제 주차장,,88,유료,0,2400,0,2400,0,2400,무료,무료,65000,100,5,100,5,0,37.50228329,126.8639327
독산1동공영주차장(구),금천구 독산동 1006-94,노외 주차장,시간제 + 거주자 주차장,,66,유료,830,1900,830,1900,830,1900,무료,무료,0,65,5,65,5,0,37.46497295,126.8948092
독산3동공영주차장(구),금천구 독산동 898-24,노외 주차장,시간제 + 거주자 주차장,,50,유료,830,1900,830,1900,830,1900,무료,무료,0,65,5,65,5,0,37.4794979,126.9063548
구로2동 마을공동주차장(구),구로구 구로동 317-187,노외 주차장,시간제 주차장,02-837-9650,81,유료,0,2400,0,2400,0,2400,무료,무료,65000,100,5,100,5,0,37.4914815,126.8883121
시흥1동 공영주차장(구),금천구 시흥동 555-3,노외 주차장,시간제 주차장,010-2866-8356,82,유료,900,1800,900,1800,900,1800,무료,무료,50000,65,5,0,0,0,37.45065167,126.8967259
독산2동 공영주차장(구),금천구 독산동 1050-17,노외 주차장,시간제 + 거주자 주차장,,66,유료,830,1900,830,1900,830,1900,무료,무료,0,65,5,65,5,0,37.46385909,126.9000615
신길환승(5호선)(구),영등포구 영등포동1가 35-0,노외 주차장,시간제 주차장,02-2069-2440,88,유료,900,1800,0,0,0,0,유료,유료,70000,100,5,100,5,0,37.51775234,126.9146039
영등포본동제1공영(구),영등포구 영등포동 592-10,노외 주차장,시간제 주차장,02-845-2913,194,유료,0,2400,0,2400,0,2400,무료,무료,70000,100,5,100,5,0,37.51440196,126.9091795
시흥3동 공영주차장(구),금천구 시흥동 942-6,노외 주차장,시간제 + 거주자 주차장,,44,유료,830,1900,830,1900,830,1900,무료,무료,0,65,5,65,5,0,37.44294835,126.9057481
가산동공영주차장(구),금천구 가산동 148-28,노외 주차장,시간제 + 거주자 주차장,02-809-0061,130,유료,830,1900,830,1900,830,1900,무료,무료,0,65,5,65,5,0,37.47666086,126.8955775
상인회주차장(시),금천구 시흥동 886-13,노외 주차장,시간제 주차장,02-808-0811,22,유료,900,1800,900,1800,900,1800,무료,무료,0,1000,30,0,0,0,37.45327415,126.9033128
견인보관소 노외(구),금천구 가산동 614-34,노외 주차장,시간제 주차장,02-854-5273,55,유료,0,2400,0,2400,0,2400,무료,무료,100000,300,10,0,0,9000,37.48299347,126.8758199
문래근린공원공영(구),영등포구 문래동3가 60-2,노외 주차장,시간제 주차장,02-2676-1520,50,유료,900,1900,0,0,0,0,유료,유료,0,250,5,250,5,0,37.51544615,126.8937947
문래동공영(구),영등포구 문래동5가 3-0,노외 주차장,시간제 주차장,02-2633-0206,60,유료,900,1800,0,0,0,0,유료,유료,98000,150,5,150,5,0,37.51631443,126.8877957
영등포동제1공영(구),영등포구 영등포동2가 230-0,노외 주차장,시간제 주차장,02-2671-1787,34,유료,630,1900,630,1900,630,1900,무료,무료,140000,150,5,150,5,0,37.52091713,126.910092
당산1동공영(구),영등포구 당산동3가 6-1,노외 주차장,시간제 주차장,02-2635-2388,91,유료,600,2200,0,0,0,0,유료,유료,70000,100,5,100,5,0,37.52376124,126.8996074
신길역사(1호선)(구),영등포구 신길동 54-2,노외 주차장,시간제 주차장,02-831-2399,25,유료,800,1900,800,1900,800,1900,무료,무료,0,100,5,100,5,0,37.51600191,126.91747
당산2동(구),영등포구 당산동 121-105,노외 주차장,시간제 주차장,02-2671-2049,30,유료,900,1800,0,0,0,0,유료,유료,140000,150,5,150,5,0,37.52824898,126.9077945
영등포동제2공영(구),영등포구 영등포동7가 29-122,노외 주차장,시간제 주차장,02-831-4938,28,유료,630,1900,630,1900,630,1900,무료,무료,70000,100,5,100,5,0,37.523784,126.9085816
대림3동공영(구),영등포구 대림동 745-1,노외 주차장,시간제 주차장,02-841-6957,105,유료,600,2200,600,2200,600,2200,무료,무료,65000,50,5,50,5,0,37.4980273,126.9004971
대림2동공영(구),영등포구 대림동 1072-25,노외 주차장,시간제 주차장,02-831-5796,154,유료,0,2400,0,2400,0,2400,무료,무료,65000,50,5,50,5,0,37.49153125,126.8997271
도림초등학교공영(구),영등포구 신길동 285-1,노외 주차장,시간제 주차장,02-845-8453,145,유료,1000,2100,1000,2100,1000,2100,무료,무료,65000,50,5,50,5,0,37.5081015,126.9074586
대림1동공영(구),영등포구 대림동 834-1,노외 주차장,시간제 주차장,02-831-4287,155,유료,600,2200,600,2200,600,2200,무료,무료,70000,100,5,100,5,0,37.49314103,126.9016337
흑석빗물펌프장공영주차장(구),동작구 흑석동 105-0,노외 주차장,시간제 주차장,,45,유료,0,2400,0,2400,0,2400,무료,무료,120000,190,5,190,5,35000,37.50858008,126.9629759
대림어린이공원지하공영(구),영등포구 대림동 870-0,노외 주차장,시간제 주차장,02-845-5505,198,유료,600,2200,600,2200,600,2200,무료,무료,70000,100,5,100,5,0,37.49120884,126.9034886
구릉주차장(구),동작구 신대방동 351-14,노외 주차장,시간제 주차장,,22,유료,800,2300,800,2300,0,0,무료,유료,90000,150,5,150,5,0,37.49873369,126.9274502
서광주차장(구),동작구 신대방동 607-45,노외 주차장,시간제 주차장,,60,유료,0,2400,0,2400,0,2400,무료,무료,100000,150,5,150,5,35000,37.48879884,126.9078418
대방생태공영주차장(구),동작구 대방동 395-1,노외 주차장,시간제 주차장,,36,유료,0,2400,0,2400,0,2400,무료,무료,100000,150,5,150,5,35000,37.50018478,126.9262925
신길4동1마을공원지하공영(구),영등포구 신길동 232-20,노외 주차장,시간제 주차장,02-843-2798,130,유료,0,2400,0,2400,0,2400,무료,무료,65000,50,5,50,5,0,37.50718232,126.9117476
원신공영주차장(구),관악구 신림동 366-0,노외 주차장,시간제 + 거주자 주차장,02-2081-2670,174,유료,0,2400,0,2400,0,2400,무료,무료,0,50,5,50,5,0,37.469935,126.9292853
조원동 제1공영주차장(구),관악구 신림동 571-6,노외 주차장,시간제 + 거주자 주차장,02-2081-2675,108,유료,0,2400,0,2400,0,2400,무료,무료,0,250,5,250,5,0,37.48108305,126.9057404
보라매제1공영주차장(구),관악구 봉천동 110-4,노외 주차장,시간제 + 거주자 주차장,02-2081-2675,133,유료,0,2400,0,2400,0,2400,무료,무료,0,50,5,50,5,0,37.48858808,126.9345485
대치2문화센터(구),강남구 대치동 980-9,노외 주차장,시간제 주차장,02-2176-0913,159,유료,0,2400,0,2400,0,2400,무료,무료,180000,300,5,300,5,25000,37.50227954,127.0642044
행운동제1공영주차장(舊 봉천6동 까치공영주차장)(구),관악구 봉천동 1677-10,노외 주차장,시간제 + 거주자 주차장,02-2081-2675,79,유료,0,2400,0,2400,0,2400,무료,무료,0,150,5,150,5,0,37.47993264,126.9606751
남현동제1공영주차장(舊남현동 거주자우선주차장)(구),관악구 남현동 1063-1,노외 주차장,시간제 + 거주자 주차장,02-2081-2675,65,유료,0,2400,0,2400,0,2400,무료,무료,0,250,5,250,5,0,37.47570006,126.9792942
구룡산2(구),강남구 개포동 126-2,노외 주차장,시간제 주차장,02-572-0648,132,유료,900,1900,0,0,0,0,유료,유료,120000,200,5,200,5,18000,37.47725982,127.0664774
양재주차빌딩(구),서초구 양재동 90-2,노외 주차장,시간제 주차장,02-577-2225,98,유료,0,2400,0,2400,0,2400,무료,무료,120000,300,10,300,10,0,37.47860952,127.0413691
일원역(시),강남구 일원동 716-2,노외 주차장,시간제 주차장,02-445-0501,67,유료,900,1900,900,1500,0,0,무료,유료,50000,100,5,100,5,0,37.48468629,127.0840899
탄천주차장(구),강남구 삼성동 171-0,노외 주차장,시간제 주차장,02-2176-0901,926,유료,0,2400,0,2400,0,2400,무료,무료,70000,100,5,100,5,12000,37.51441586,127.0662917
논현로32길15(구),강남구 도곡동 516-2,노외 주차장,시간제 주차장,02-2057-0913,21,유료,900,1900,0,0,0,0,유료,유료,180000,300,5,300,5,25000,37.48430646,127.0434181
